id,name,name_kana,address,area,category,lat,lng,place_id,google_maps_url,phone,is_verified,created_by,created_at
"cdf9f811-d6da-4219-be56-c6021edca697","柚木元","ゆのきもと","日本、〒395-0086 長野県飯田市東和町１丁目９−３","飯田市","飲食","35.5192646","137.8233077",,"https://maps.google.com/?cid=3509300534510639040","0265-23-5210","true","api","2025-10-31T00:05:35.94889+00:00"
"f501489d-dd52-4247-8286-0757d671733c","幸楽苑 飯田上郷店","こうらくえん いいだかみごうてん","日本、〒395-0002 長野県飯田市上郷飯沼２２２３−１ 2223番地1","飯田市","飲食","35.5165867","137.8494365",,"https://maps.google.com/?cid=6461059866051439686","0265-21-4310","true","api","2025-10-31T00:05:36.748415+00:00"
"e9388031-2e77-497d-a805-ba670ca765c6","とんかつ しゃぶしゃぶ ３びきのこぶた","とんかつ しゃぶしゃぶ ３びきのこぶた","日本、〒395-0805 長野県飯田市鼎一色４９−１","飯田市","飲食","35.5037881","137.8115806",,"https://maps.google.com/?cid=15600400819786982857","0265-52-5355","true","api","2025-10-31T00:05:37.47787+00:00"
"9ad2bdec-21f2-42c2-b978-6b116993f4bb","ロカンディーナミヤザワ","ロカンディーナミヤザワ","日本、〒395-0003 長野県飯田市上郷別府１４０３−１","飯田市","飲食","35.50791","137.847436",,"https://maps.google.com/?cid=2737082408284372931","0265-49-8195","true","api","2025-10-31T00:05:38.144159+00:00"
"029a26c7-7648-4bbb-8d99-3b52d618c3e3","海鮮居酒屋 はなの舞 飯田店","かいせんいざかや はなのまい いいだてん","日本、〒395-0805 長野県飯田市鼎一色４６−３","飯田市","飲食","35.5039429","137.8117704",,"https://maps.google.com/?cid=2182961756830647252","0265-23-7018","true","api","2025-10-31T00:05:38.829881+00:00"
"7c6b1fc1-da2f-4cf5-bad3-d0a520d4be6b","Cafe&Noodle あんじゅ+2","Cafe&Noodle あんじゅ+2","日本、〒395-0001 長野県飯田市座光寺５２５２−１","飯田市","飲食","35.5241499","137.8626214",,"https://maps.google.com/?cid=18286573310573628874","0265-48-0876","true","api","2025-10-31T00:05:39.478237+00:00"
"8c15f82c-be82-412d-a0dc-f42aec47b9bf","手塚","てづか","日本、〒395-0152 長野県飯田市育良町１丁目１８−５","飯田市","飲食","35.5051781","137.8001607",,"https://maps.google.com/?cid=4387909613885873638","0265-25-8982","true","api","2025-10-31T00:05:40.129743+00:00"
"b00517ef-5288-4586-be0c-2f359177e2d0","かじか","かじか","日本、〒395-0001 長野県飯田市座光寺３３３３−２","飯田市","飲食","35.5362236","137.8627277",,"https://maps.google.com/?cid=1325617669948480722","0120-535-432","true","api","2025-10-31T00:05:40.774515+00:00"
"5d2b0a2a-de74-4aa0-adf2-13a4235fb7ac","カレーハウスCoCo壱番屋 飯田座光寺店","カレーハウスCoCoいちばんや いいだざこうじてん","日本、〒395-0001 長野県飯田市座光寺３９４８−４","飯田市","飲食","35.5287048","137.8562521",,"https://maps.google.com/?cid=4581548239308567035","0265-23-7044","true","api","2025-10-31T00:05:41.417737+00:00"
"66925034-f198-482f-9de8-469733511ade","アンプロンプテュ","アンプロンプテュ","日本、〒395-0044 長野県飯田市本町２丁目２９","飯田市","飲食","35.5151043","137.8246964",,"https://maps.google.com/?cid=1642176523110101149","0265-22-0234","true","api","2025-10-31T00:05:42.064462+00:00"
"65edd291-3150-4293-b964-1434d776c689","孔府飯店","あなふはんてん","日本、〒395-0063 長野県飯田市羽場町１丁目５−１１","飯田市","飲食","35.5196514","137.8118043",,"https://maps.google.com/?cid=5776907625934721002","0265-24-0062","true","api","2025-10-31T00:05:42.699539+00:00"
"b29f2006-d163-4230-9719-7d616454b257","すき家 153号飯田座光寺店","すきか 153ごういいだざこうじてん","日本、〒395-0001 長野県飯田市座光寺４７０５−１","飯田市","飲食","35.5316941","137.8640388",,"https://maps.google.com/?cid=1081187714067691281","0120-498-007","true","api","2025-10-31T00:05:43.345848+00:00"
"65c7f8b9-7ed1-4909-8ee4-1c15108b6266","旭鮨","あさひすし","日本、〒395-0027 長野県飯田市馬場町２丁目１００","飯田市","飲食","35.5155414","137.8295311",,"https://maps.google.com/?cid=489248609843310206","0265-23-7870","true","api","2025-10-31T00:05:43.989054+00:00"
"7713856d-84e2-4db0-9431-7256505a67a3","文七","ぶんなな","日本、〒395-0054 長野県飯田市箕瀬町２丁目２４７７","飯田市","飲食","35.5138803","137.8192938",,"https://maps.google.com/?cid=18378640488723487158","0265-24-9393","true","api","2025-10-31T00:05:44.6343+00:00"
"31f3d198-0144-427f-8316-4f166cc5d935","はやふね","はやふね","日本、〒395-0017 長野県飯田市東新町１丁目２０","飯田市","飲食","35.5193854","137.8283211",,"https://maps.google.com/?cid=14273613331299127164","0120-523-419","true","api","2025-10-31T00:05:45.269035+00:00"
"1bbd1a0b-bd76-4234-a8ab-f83e7eea2304","朝日屋","あさひや","日本、〒395-0044 長野県飯田市本町４丁目１２３５−１","飯田市","飲食","35.5175581","137.819911",,"https://maps.google.com/?cid=12294027061593392766","0265-22-3153","true","api","2025-10-31T00:05:45.907997+00:00"
"bc35cc04-996b-492a-bb3a-6a1a869b8dc1","炭火居酒屋のんべえ","すみびいざかやのんべえ","日本、〒395-0041 長野県飯田市中央通り２丁目１","飯田市","飲食","35.516749","137.8260985",,"https://maps.google.com/?cid=10656088550387945615","0265-53-4320","true","api","2025-10-31T00:05:46.544447+00:00"
"0d527c21-3fa2-4595-96c8-58dc4e1ae1d6","丸忠 アピタ 飯田店","まるただし アピタ いいだてん","日本、〒395-0804 長野県飯田市鼎名古熊２４６１","飯田市","飲食","35.4994786","137.8291266",,"https://maps.google.com/?cid=17484153796943682459","0265-52-5557","true","api","2025-10-31T00:05:47.183476+00:00"
"f5fb1922-6a1b-4b39-a7db-796fd2144306","えん屋","えんや","日本、〒395-0086 長野県飯田市東和町１丁目３","飯田市","飲食","35.5183677","137.8246921",,"https://maps.google.com/?cid=5980092032792937886","0265-24-4420","true","api","2025-10-31T00:05:47.822724+00:00"
"ba03b6f2-3ee9-4df5-8e61-4df871b90463","ほっともっと 飯田上郷店","ほっともっと いいだかみごうてん","日本、〒395-0003 長野県飯田市上郷別府３３６１−２","飯田市","飲食","35.5116424","137.8405052",,"https://maps.google.com/?cid=11674356657812492273","0265-56-8166","true","api","2025-10-31T00:05:48.451985+00:00"
"ec70078e-8a4f-43e0-8b46-30e9c711bf80","カフェレスト・センジュ","カフェレスト・センジュ","日本、〒395-0033 長野県飯田市常盤町１７ イイダコアセンジュ 1F","飯田市","飲食","35.513167","137.8264708",,"https://maps.google.com/?cid=12602368240116273775","0265-22-1010","true","api","2025-10-31T00:05:49.375744+00:00"
"26529bee-5745-4090-947f-42f42a17b363","珈琲蘭峰屋","こーひーらんほうや","日本、〒395-0041 長野県飯田市中央３丁目","飯田市","飲食","35.5179675","137.8237373",,"https://maps.google.com/?cid=7659071672039289783","0265-24-9855","true","api","2025-10-31T00:05:49.993134+00:00"
"7b6fe629-3a85-46d4-86f4-134ba2910653","自家焙煎珈琲屋カフェ・トロピコ","じかあぶいこーひーやカフェ・トロピコ","日本、〒395-0002 長野県飯田市上郷飯沼１７９５−７","飯田市","飲食","35.5202167","137.8489027",,"https://maps.google.com/?cid=5775162830584293723","0265-21-5201","true","api","2025-10-31T00:05:50.627008+00:00"
"89670d2a-23f4-41fa-b4b9-2708d7bdf959","アートハウス","アートハウス","日本、〒395-0004 長野県飯田市上郷黒田１８７７","飯田市","飲食","35.5271002","137.8432512",,"https://maps.google.com/?cid=16880290120745580886","0265-24-5811","true","api","2025-10-31T00:05:51.303555+00:00"
"b8b00e27-b9c6-4dde-a9c0-4fe8efc64a45","ビーバー","ビーバー","日本、〒395-0002 長野県飯田市上郷飯沼３０４９","飯田市","飲食","35.520189","137.842547",,"https://maps.google.com/?cid=4750419991537568326","0265-24-4818","true","api","2025-10-31T00:05:51.94312+00:00"
"dd94157e-922a-4497-ac1c-211550c60a89","atomic cafe","atomic cafe","日本、〒395-0034 長野県飯田市追手町１丁目４３","飯田市","飲食","35.514225","137.8269722",,"https://maps.google.com/?cid=13169220733999623358","0265-53-6200","true","api","2025-10-31T00:05:52.573385+00:00"
"92c786bd-eb85-4fe3-bd53-404249dd9dfe","KURANO","KURANO","日本、〒395-0021 長野県飯田市仲ノ町１丁目３","飯田市","飲食","35.5162915","137.8291839",,"https://maps.google.com/?cid=13830843945135278289","0265-48-8121","true","api","2025-10-31T00:05:53.21087+00:00"
"bad3da37-2c5b-48de-b2ae-c2fa2ce9352d","ハーレー","ハーレー","日本、〒395-0001 長野県飯田市座光寺５７８−１","飯田市","飲食","35.5390834","137.8405373",,"https://maps.google.com/?cid=2605060671720777374","0265-24-6019","true","api","2025-10-31T00:05:53.840153+00:00"
"7f493598-e63f-4371-ad12-e5c94372a87d","マクドナルド そよら飯田アップルロード店","マクドナルド そよらいいだアップルロードてん","日本、〒395-0805 長野県飯田市鼎一色４５６","飯田市","飲食","35.500197","137.8160035",,"https://maps.google.com/?cid=12341969172319755801","0265-21-6091","true","api","2025-10-31T00:05:54.468634+00:00"
"08e1706b-6c2b-4a4a-84a6-98cbf62af033","ピッピーノ","ピッピーノ","日本、〒395-0001 長野県飯田市座光寺３７２２−１","飯田市","飲食","35.5303329","137.8602272",,"https://maps.google.com/?cid=16614989238127531353","0265-38-9087","true","api","2025-10-31T00:05:55.089316+00:00"
"5034ab69-b1da-4b25-afcb-4f0dd9470dfb","カフェ狐","カフェきつね","日本、〒395-0051 長野県飯田市大瀬木３９２７−２","飯田市","飲食","35.4911594","137.7856429",,"https://maps.google.com/?cid=12075958978478967410",,"true","api","2025-10-31T00:05:55.716093+00:00"
"4e48e824-3bd1-4cfd-a209-d5e59bd14c75","ミスタードーナツ 飯田ショップ","ミスタードーナツ いいだショップ","日本、〒395-0804 長野県飯田市鼎名古熊６６０−１","飯田市","飲食","35.498696","137.8172677",,"https://maps.google.com/?cid=17043381473666745937","0265-53-3515","true","api","2025-10-31T00:05:56.345362+00:00"
"f119e93c-5ce8-4c56-8d37-b2aaf6cc84ec","カフェ三連蔵 / cafe sanrenggura","カフェさんれんくら / cafe sanrenggura","日本、〒395-0043 長野県飯田市通り町２丁目１−１","飯田市","飲食","35.515804","137.8252285",,"https://maps.google.com/?cid=343454290291294659","0265-23-0023","true","api","2025-10-31T00:05:56.987009+00:00"
"0ae979b4-9746-42c9-91b1-ee426b48d621","Botanicaflower SCHOOL［長野飯田］","Botanicaflower SCHOOL［ながのいいだ］","日本、〒399-2603 長野県飯田市下久堅知久平１８００−４","飯田市","飲食","35.4821708","137.8497009",,"https://maps.google.com/?cid=510936759069275528","080-9464-2587","true","api","2025-10-31T00:05:57.605527+00:00"
"cf7b17d9-6537-4c5e-9b58-1586f2f98e75","喫茶 喆々","きっさ 喆々","日本、〒395-0151 長野県飯田市北方","飯田市","飲食","35.501868","137.8071854",,"https://maps.google.com/?cid=9394225431924692471",,"true","api","2025-10-31T00:05:58.232943+00:00"
"d9b81bfb-edc9-495a-9924-4a27d4da30ca","胡桃","くるみ","日本、〒395-0004 長野県飯田市上郷黒田８１５−１","飯田市","飲食","35.5244476","137.8310127",,"https://maps.google.com/?cid=4932226332380666709","0265-52-5957","true","api","2025-10-31T00:05:58.854151+00:00"
"b869f9c8-2435-4c0d-b755-ffd33d1db960","LIT.","LIT.","日本、〒395-0004 長野県飯田市上郷黒田４５６","飯田市","飲食","35.5173664","137.8412943",,"https://maps.google.com/?cid=7698965332171483327","0265-49-8489","true","api","2025-10-31T00:05:59.475498+00:00"
"446f78b7-affa-496a-9181-efa93a127eba","Burger Cafe PAL'S-パルズ-","Burger Cafe PAL'S-パルズ-","１, １丁目-２-10 本町 飯田市 長野県 395-0044 日本","飯田市","飲食","35.5150086","137.8255043",,"https://maps.google.com/?cid=6398852011175938662","080-2394-3984","true","api","2025-10-31T00:06:00.104874+00:00"
"20827e8c-5f36-41af-b256-205f278de5dc","ソシアルクラブ","ソシアルクラブ","日本、〒395-0041 長野県飯田市中央通り１丁目４","飯田市","飲食","35.516101","137.827081",,"https://maps.google.com/?cid=8453598289195048076","0265-23-1765","true","api","2025-10-31T00:06:01.083159+00:00"
"c49445da-cdeb-4eda-ad72-95de638aa488","リーベル・リーベル","リーベル・リーベル","日本、〒395-0041 長野県飯田市中央通り３丁目50−３ 小山ビル 1F","飯田市","飲食","35.517568","137.8239443",,"https://maps.google.com/?cid=16270866358478996500","0265-49-7080","true","api","2025-10-31T00:06:01.720728+00:00"
"a6578116-5c96-4097-9d3a-4e0ada785e4e","BAR RANPUYA (バー ランプヤ）","BAR RANPUYA (バー ランプヤ）","日本、〒395-0041 長野県飯田市中央通り２丁目１４ 2F","飯田市","飲食","35.5171566","137.8248884",,"https://maps.google.com/?cid=11192236593476773329","0265-24-5855","true","api","2025-10-31T00:06:02.359941+00:00"
"e2eedc33-8b4d-47ed-b1df-c8a10c6d8581","SHOT RANPUYA","SHOT RANPUYA","日本、〒395-0041 長野県飯田市中央通り３丁目５１","飯田市","飲食","35.517408","137.8240795",,"https://maps.google.com/?cid=16565733904207812212","0265-23-5255","true","api","2025-10-31T00:06:02.998548+00:00"
"253884b4-154f-4010-bb0b-e2c3ed8c8600","VIN RANPUYA","VIN RANPUYA","日本、〒395-0041 長野県飯田市中央通り２丁目１４","飯田市","飲食","35.5171943","137.8248103",,"https://maps.google.com/?cid=1703589215128264239","0265-52-6455","true","api","2025-10-31T00:06:03.649651+00:00"
"aad3fe16-8380-4515-a23a-5b3a003d0031","ふぉの","ふぉの","日本、〒395-0041 長野県飯田市中央通り４丁目 金太 丸 BＦ ４丁目","飯田市","飲食","35.5182156","137.823205",,"https://maps.google.com/?cid=6362112531957052454",,"true","api","2025-10-31T00:06:04.333843+00:00"
"099ed4d6-f48d-4a74-baaa-25fc349f4abb","Food&Bar REAZY","Food&Bar REAZY","日本、〒395-0041 長野県飯田市中央通り２丁目１ セントラルホテル 1F","飯田市","飲食","35.517005","137.826338",,"https://maps.google.com/?cid=12248762150605038275","0265-49-4577","true","api","2025-10-31T00:06:05.014121+00:00"
"601c754c-a0f1-4b93-9932-aea97ece1a51","カラオケJOYJOY 飯田IC店","カラオケJOYJOY いいだICてん","日本、〒395-0151 長野県飯田市北方４７３−１","飯田市","飲食","35.501268","137.8087908",,"https://maps.google.com/?cid=14377210698075276156","0265-22-5222","true","api","2025-10-31T00:06:05.665607+00:00"
"2d22f01b-ecb0-47a2-a930-b4ccaababceb","BAR 古時計","BAR ことけい","日本、〒395-0027 長野県飯田市馬場町１丁目７ 村沢ビル Ｂ１Ｆ","飯田市","飲食","35.5155776","137.8290342",,"https://maps.google.com/?cid=10561778317782017224","0265-22-0750","true","api","2025-10-31T00:06:06.308526+00:00"
"e8bd4297-ae1c-46e4-af34-bd8aa681ab4e","POMGE 2nd Cidre & bonbon","POMGE 2nd Cidre & bonbon","日本、〒395-0043 長野県飯田市通り町２丁目２３ 23番地","飯田市","飲食","35.5154157","137.8250664",,"https://maps.google.com/?cid=2176820172314641306",,"true","api","2025-10-31T00:06:06.931753+00:00"
"d776bf41-7673-4a18-925d-b0b89d0dff4a","American Public EAZY DINER アメリカンパブリックイージーダイナー","American Public EAZY DINER アメリカンパブリックイージーダイナー","日本、〒395-0042 長野県飯田市松尾町３丁目１１","飯田市","飲食","35.5172161","137.8236505",,"https://maps.google.com/?cid=5787580764777089837","080-5626-8654","true","api","2025-10-31T00:06:07.570201+00:00"
"de973d98-3109-4b88-8405-00745484eb65","BAR Reunion","BAR Reunion","日本、〒395-0042 長野県飯田市松尾町４丁目５","飯田市","飲食","35.5176353","137.8228071",,"https://maps.google.com/?cid=10280562917166746608","0265-49-3662","true","api","2025-10-31T00:06:08.212617+00:00"
"4889bfb4-abd6-4dba-87e0-e1b34d94558e","ＰＵＢ・ＪＥＮＮＹ","ＰＵＢ・ＪＥＮＮＹ","日本、〒395-0042 長野県飯田市松尾町４丁目５","飯田市","飲食","35.5176795","137.8228504",,"https://maps.google.com/?cid=15506798548250080436","0265-48-5534","true","api","2025-10-31T00:06:08.86666+00:00"
"cb066bb2-7ea9-4aaa-b47b-c25a69ebc4f6","After5ive","After5ive","トキワビル, B1, ５丁目 常盤町 飯田市 長野県 395-0033 日本","飯田市","飲食","35.5136857","137.8252848",,"https://maps.google.com/?cid=14483151982464226853","0265-23-7005","true","api","2025-10-31T00:06:09.493949+00:00"
"243b49b5-7a28-48fc-beb4-2a247c2f487d","アマンダリ","アマンダリ","日本、〒395-0041 長野県飯田市中央通り３丁目５２","飯田市","飲食","35.5173055","137.8240952",,"https://maps.google.com/?cid=10053493589860644378","0265-52-2558","true","api","2025-10-31T00:06:10.131953+00:00"
"fe222238-8d3c-433b-97a3-aeff7eae715a","ラウンジキラメキ","ラウンジキラメキ","日本、〒395-0041 長野県飯田市中央通り３丁目５２−１","飯田市","飲食","35.5173608","137.8242267",,"https://maps.google.com/?cid=18246316926629392500","0265-23-4417","true","api","2025-10-31T00:06:10.778998+00:00"
"840c1dcd-6199-43bf-a77e-722cd10a8f33","スナックあけみちゃん","スナックあけみちゃん","日本、〒395-0041 長野県飯田市中央通り４丁目５１","飯田市","飲食","35.5180429","137.8229116",,"https://maps.google.com/?cid=3503899464453538483",,"true","api","2025-10-31T00:06:11.411328+00:00"
"b34c6ad3-b93c-4206-9151-4b476c1a23c0","蘭峰屋倶楽部","らんほうやくらぶ","日本、〒395-0041 長野県飯田市中央通り４丁目 中央通り4-52 2F","飯田市","飲食","35.5180181","137.8230489",,"https://maps.google.com/?cid=2642256792466323656","0265-24-8555","true","api","2025-10-31T00:06:12.051858+00:00"
"46395567-f653-45cb-b730-bcb2c3cb3cfd","スナック にゃんこ","スナック にゃんこ","日本、〒395-0041 長野県飯田市中央通り３丁目１６ 小林ビル B1F","飯田市","飲食","35.5180552","137.823448",,"https://maps.google.com/?cid=1676815237655225269","0265-56-6533","true","api","2025-10-31T00:06:12.693492+00:00"
"376f7810-cc20-4a51-bb5b-feaf97fd2ad2","サーティワンアイスクリーム アピタ飯田店","サーティワンアイスクリーム アピタいいだてん","日本、〒395-0804 長野県飯田市鼎名古熊２４６１","飯田市","飲食","35.499795","137.8297243",,"https://maps.google.com/?cid=5107379928063784742","0265-23-3931","true","api","2025-10-31T00:06:13.859756+00:00"
"1be80f2d-a350-45dc-ba2c-0235b5a884b0","スーパーマーケットバロー松尾店","スーパーマーケットバローまつおてん","日本、〒395-0823 長野県飯田市松尾明７９３３−１","飯田市","飲食","35.4877736","137.8480818",,"https://maps.google.com/?cid=6028763452991702197","0265-59-7322","true","api","2025-10-31T00:06:14.495055+00:00"
"3877ea4c-9aba-4da7-85e3-0e8b138ade28","ラパンフレミヤザワ","ラパンフレミヤザワ","日本、〒395-0156 長野県飯田市中村１１８１−３","飯田市","飲食","35.4859685","137.7897884",,"https://maps.google.com/?cid=2564835091908452868","0265-25-4889","true","api","2025-10-31T00:06:15.122034+00:00"
"87d45eee-8dfa-4e14-8657-1ce8326dee00","エンゼル","エンゼル","日本、〒395-0054 長野県飯田市箕瀬町３丁目2523ー1","飯田市","飲食","35.5132069","137.8185263",,"https://maps.google.com/?cid=1027968812290667173","0265-22-1264","true","api","2025-10-31T00:06:15.753+00:00"
"f9eece27-fd3c-471e-81b4-e707ef45d782","一不二","いちふじ","日本、〒395-0045 長野県飯田市知久町１丁目８","飯田市","飲食","35.5142473","137.8254209",,"https://maps.google.com/?cid=18039698059879213303","0265-22-1483","true","api","2025-10-31T00:06:16.38313+00:00"
"8ca3b9da-7d09-4b88-8b87-8604ee6a32c5","ヤマザキパンくぼた","ヤマザキパンくぼた","日本、〒395-0041 長野県飯田市中央通り３丁目４４","飯田市","飲食","35.517794","137.823354",,"https://maps.google.com/?cid=7523409874963419924","0265-22-2178","true","api","2025-10-31T00:06:17.017157+00:00"
"4dfe68c6-229e-42af-9c24-453e32c2a933","紅谷洋菓子店","べにやようがしてん","日本、〒395-0043 長野県飯田市通り町４丁目１３０７","飯田市","飲食","35.5179457","137.8202073",,"https://maps.google.com/?cid=2134264403858681597","0265-22-6049","true","api","2025-10-31T00:06:17.63713+00:00"
"795c6604-5ca0-421d-8b20-d612e302ed56","タイホーパン","タイホーパン","日本、〒395-0042 長野県飯田市松尾町１丁目１３","飯田市","飲食","35.5158147","137.8259404",,"https://maps.google.com/?cid=11060252404868407546","0265-22-1443","true","api","2025-10-31T00:06:18.259924+00:00"
"ea6e51c6-f269-4c37-a0d2-1f6eb7c20f90","パン工房 ゆめのや","パンこうぼう ゆめのや","日本、〒395-0071 長野県飯田市今宮町１丁目１７−１７","飯田市","飲食","35.51883","137.818563",,"https://maps.google.com/?cid=18190644969573856694","0265-48-0668","true","api","2025-10-31T00:06:18.892922+00:00"
"45d22753-e0a2-4971-a021-f391edfffaec","パンの時間","パンのじかん","日本、〒395-0051 長野県飯田市高羽町４丁目５−１１","飯田市","飲食","35.5223775","137.8198833",,"https://maps.google.com/?cid=16903253058471319374","0265-49-0706","true","api","2025-10-31T00:06:19.51411+00:00"
"4823d697-88a8-41e2-939f-8d3fb54d8616","パンと惣菜 TABERU","パンとそうざい TABERU","日本、〒395-0013 長野県飯田市小伝馬町１丁目４７","飯田市","飲食","35.5191811","137.8301317",,"https://maps.google.com/?cid=16415263961700784377",,"true","api","2025-10-31T00:06:20.155708+00:00"
"e6eaaa87-604d-4c35-8d8c-c26ca1d5c285","pâtisserie POLKA(菓子工房ポルカ)","pâtisserie POLKA(かしこうぼうポルカ)","日本、〒395-0806 長野県飯田市鼎上山上山３１２９−２","飯田市","飲食","35.50728","137.816248",,"https://maps.google.com/?cid=18206025994179729479","0265-52-1776","true","api","2025-10-31T00:06:20.785378+00:00"
"e7447869-d813-4128-a11b-e8d80222d41f","パン工房 いずみ","パンこうぼう いずみ","日本、〒395-0071 長野県飯田市今宮町４丁目５６０９−２","飯田市","飲食","35.5257074","137.815557",,"https://maps.google.com/?cid=5925138410028768214","0265-52-2458","true","api","2025-10-31T00:06:21.404873+00:00"
"d06d783f-ae33-49b2-95cc-3dbde62edf4e","はと錦 本店","はとにしき ほんてん","日本、〒395-0805 長野県飯田市鼎一色６４−１","飯田市","飲食","35.503448","137.8117029",,"https://maps.google.com/?cid=9550370830725462355","0265-22-0810","true","api","2025-10-31T00:06:22.041186+00:00"
"bb288e24-5667-408c-9c63-b626b036dba3","パン屋 カンパーニュ","パンや カンパーニュ","日本、〒395-0803 長野県飯田市鼎８２４−１","飯田市","飲食","35.504409","137.833557",,"https://maps.google.com/?cid=10192084775252503780","0265-52-5351","true","api","2025-10-31T00:06:22.669759+00:00"
"82882d47-dfe0-41ff-bb15-5290da31ab46","いじりやフードサービス","いじりやフードサービス","日本、〒395-0003 長野県飯田市上郷別府３３７６−２","飯田市","飲食","35.5107662","137.8385209",,"https://maps.google.com/?cid=16644679991867631215",,"true","api","2025-10-31T00:06:23.29185+00:00"
"528da5a3-4256-4602-ab38-b762faf02f85","パティスリー マサ・オオシマ","パティスリー マサ・オオシマ","日本、〒395-0803 長野県飯田市鼎１４１３−４","飯田市","飲食","35.5026964","137.8323308",,"https://maps.google.com/?cid=15874025482703669202","0265-48-6828","true","api","2025-10-31T00:06:23.927893+00:00"
"ea95e458-30ed-493f-bfba-31807105147c","パン工房ローカリズム","パンこうぼうローカリズム","日本、〒395-0805 長野県飯田市鼎一色４１０ マクロマックスビル 1F","飯田市","飲食","35.4995793","137.8148287",,"https://maps.google.com/?cid=10263003296265362802","0265-24-6112","true","api","2025-10-31T00:06:24.557551+00:00"
"0a09e930-08d1-4661-9217-7aad353ae845","アートクラブパラダイス","アートクラブパラダイス","日本、〒395-0028 長野県飯田市主税町３１","飯田市","飲食","35.5151458","137.8276893",,"https://maps.google.com/?cid=18108646084868436558","0265-53-2235","true","api","2025-10-31T00:06:25.441237+00:00"
"58ebd7e6-3d0b-4ff4-b486-f734ab4ba550","お食事 居酒屋 星(あかり)","おしょくじ いざかや ほし(あかり)","日本、〒395-0004 長野県飯田市上郷黒田４３５−１","飯田市","飲食","35.518053","137.8420549",,"https://maps.google.com/?cid=5499174405041977036","0265-22-6897","true","api","2025-10-31T00:06:26.072008+00:00"
"d337761f-9a71-482d-b5e7-7e107ab0f2b0","ジョイアス","ジョイアス","日本、〒395-0042 長野県飯田市松尾町４丁目５−１","飯田市","飲食","35.5177613","137.8227335",,"https://maps.google.com/?cid=4492614704940819010","0265-56-6026","true","api","2025-10-31T00:06:26.713314+00:00"
"8969c871-33b7-4005-9158-53ad69e56c56","スナックバーChouChou シュシュ","スナックバーChouChou シュシュ","日本、〒395-0031 長野県飯田市銀座５丁目６","飯田市","飲食","35.5137612","137.826049",,"https://maps.google.com/?cid=17936694312967139104","0265-22-7820","true","api","2025-10-31T00:06:27.346641+00:00"
"e186f7f5-fccf-4388-9647-3595e013b3ce","魚民 飯田駅前店","さかなみん いいだえきまえてん","日本、〒395-0041 長野県飯田市中央通り４丁目４７−３ シノダビル 1階","飯田市","飲食","35.518478","137.8222659",,"https://maps.google.com/?cid=11912929651877441072","0265-23-4988","true","api","2025-10-31T00:06:27.96807+00:00"
"20b750aa-48a4-4923-becb-c2ad7fec3f9d","山内農場 飯田駅前店","やまうちのうじょう いいだえきまえてん","日本、〒395-0041 長野県飯田市中央通り４丁目４２ 松澤店舗 1階","飯田市","飲食","35.5188351","137.8216253",,"https://maps.google.com/?cid=1941356883344681302","0265-21-4388","true","api","2025-10-31T00:06:28.606554+00:00"
"054fba0e-f3c0-4981-80a3-899473b8026c","スナック優","スナックゆう","日本、〒395-0086 長野県飯田市東和町２丁目3−９","飯田市","飲食","35.5181883","137.8248439",,"https://maps.google.com/?cid=14197929494422524636","0265-23-9503","true","api","2025-10-31T00:06:29.246641+00:00"
"a16ccfd9-0d48-47f5-b4b7-4ab91ad194e5","Club Lucina","Club Lucina","日本、〒395-0041 長野県飯田市中央通り１丁目 中央通り１丁目６番地 飯田中央ビル地下１階","飯田市","飲食","35.516241","137.826831",,"https://maps.google.com/?cid=3256390531584220177","0265-23-0148","true","api","2025-10-31T00:06:29.877302+00:00"
"92513d93-a7ea-4966-85df-981d5db8d1ed","ヨーロッパ風居酒屋 スペインバル マージ","ヨーロッパふういざかや スペインバル マージ","日本、〒395-0015 長野県飯田市江戸町４丁目２８２−１","飯田市","飲食","35.5160051","137.8319366",,"https://maps.google.com/?cid=18317611012468654199","0265-53-2139","true","api","2025-10-31T00:06:30.51109+00:00"
"6702132e-bae9-4454-8e74-f745e6ecc1b3","吉野家 飯田大門町店","よしのや いいだおおかどまちてん","日本、〒395-0011 長野県飯田市大門町８５−１","飯田市","飲食","35.5231466","137.8292477",,"https://maps.google.com/?cid=11262006194237837204","0265-49-0332","true","api","2025-10-31T00:06:31.148103+00:00"
"22d2dfe7-3423-4a62-b327-7ed0d1415ff8","カレーハウス CoCo壱番屋 そよら飯田アップルロード店","カレーハウス CoCoいちばんや そよらいいだアップルロードてん","日本、〒395-0805 長野県飯田市鼎一色４５６","飯田市","飲食","35.500197","137.8160026",,"https://maps.google.com/?cid=16725816633931820562","0265-24-1773","true","api","2025-10-31T00:06:31.78457+00:00"
"4ed600fa-5792-4af0-9289-c58725df3c32","カルビ大将 飯田店","カルビたいしょう いいだてん","日本、〒395-0804 長野県飯田市鼎名古熊２０３１−１","飯田市","飲食","35.4978932","137.8273415",,"https://maps.google.com/?cid=3476262558734624013","0265-53-5122","true","api","2025-10-31T00:06:32.421137+00:00"
"8c8dada7-f793-461a-915c-3ad4a4dd7e29","ステーキ宮 飯田インター店","ステーキみや いいだインターてん","日本、〒395-0805 長野県飯田市鼎一色１７６−２","飯田市","飲食","35.5007458","137.8130827",,"https://maps.google.com/?cid=18186419375438465110","0265-52-2311","true","api","2025-10-31T00:06:33.046999+00:00"
"f7e06060-64e9-4e63-81c2-dbcf72c57985","ドミニカ","ドミニカ","日本、〒395-0085 長野県飯田市吾妻町１２６","飯田市","飲食","35.518218","137.8256901",,"https://maps.google.com/?cid=11858941650929374080","0265-24-3735","true","api","2025-10-31T00:06:33.676545+00:00"
"88cfc8b6-89fc-4504-af0b-ae1cb83f39bf","シャレード","シャレード","日本、〒395-0041 長野県飯田市中央通り３丁目２０","飯田市","飲食","35.518502","137.8237561",,"https://maps.google.com/?cid=13699989577521545499","0265-23-5823","true","api","2025-10-31T00:06:34.315571+00:00"
"632be545-3464-4f61-a667-ad114d0e3479","リヨン","リヨン","日本、〒395-0034 長野県飯田市追手町１丁目４３","飯田市","飲食","35.5142057","137.8269711",,"https://maps.google.com/?cid=6416573610680721291","0265-24-1340","true","api","2025-10-31T00:06:34.943716+00:00"
"28c097be-66b7-484b-abfb-f5f35da85ed1","宅配クック123 飯田店","たくはいクック123 いいだてん","日本、〒395-0811 長野県飯田市松尾上溝２６９３−１","飯田市","その他","35.5023133","137.8444751",,"https://maps.google.com/?cid=9622770464201594851","0265-56-4050","true","api","2025-10-31T00:06:35.856495+00:00"
"9e185793-97a3-46e7-a16d-ac7e2aeebc87","ピザーラ 飯田店","ピザーラ いいだてん","日本、〒395-0804 長野県飯田市鼎名古熊２６０３−２","飯田市","飲食","35.4986211","137.8329481",,"https://maps.google.com/?cid=3263000847410229847","0265-53-9100","true","api","2025-10-31T00:06:36.519084+00:00"
"603a16b1-ab60-48c3-ab81-4c43619c03f7","飯田市のお弁当 ホテルオオハシ","いいだしのおべんとう ホテルオオハシ","日本、〒395-0033 長野県飯田市常盤町２８−２８ ２８番地","飯田市","商業","35.512885","137.8276457",,"https://maps.google.com/?cid=3126938739406685637","090-4920-0141","true","api","2025-10-31T00:06:37.150162+00:00"
"c19fe622-e8a4-44c6-bfef-0b69d1296635","ほっともっと 飯田羽場町１丁目店","ほっともっと いいだはばまち１ちょうめてん","日本、〒395-0063 長野県飯田市羽場町１丁目１３−７","飯田市","飲食","35.5172111","137.8085895",,"https://maps.google.com/?cid=12328005027867876062","0265-56-3010","true","api","2025-10-31T00:06:37.793638+00:00"
"70b529e7-ed0b-42b6-ab95-59e456334037","カレーの大原屋","カレーのおおはらや","日本、〒395-0067 長野県飯田市羽場町９７８−４","飯田市","飲食","35.5202806","137.8039881",,"https://maps.google.com/?cid=6102826532913643949","0265-21-0739","true","api","2025-10-31T00:06:38.437093+00:00"
"9e43154b-8c44-482c-8373-3c2f15ea8fc3","ケンタッキーフライドチキン飯田店","ケンタッキーフライドチキンいいだてん","日本、〒395-0804 長野県飯田市鼎名古熊５９０−７","飯田市","飲食","35.4991691","137.8161747",,"https://maps.google.com/?cid=8240289867221432353","0265-56-1050","true","api","2025-10-31T00:06:39.091355+00:00"
"574d80e3-23a7-40ce-89b8-ab37752cfda5","ほっともっと 飯田アップルロード店","ほっともっと いいだアップルロードてん","日本、〒395-0804 長野県飯田市鼎名古熊２１４１−１","飯田市","飲食","35.4981657","137.825522",,"https://maps.google.com/?cid=6791430557810225347","0265-53-6412","true","api","2025-10-31T00:06:39.745231+00:00"
"4b15bd9a-50cf-4a20-b21d-1570353572d1","宅食ライフ 飯田店","たくしょくライフ いいだてん","日本、〒395-0814 長野県飯田市八幡町４８７−６","飯田市","商業","35.4975761","137.8351078",,"https://maps.google.com/?cid=9835192842484530884","0265-49-4313","true","api","2025-10-31T00:06:40.375397+00:00"
"c80d23c9-a36a-4d5f-a852-93de940f4065","まごころ弁当 飯田天の雫店","まごころべんとう いいだたかしのしずくてん","日本、〒395-0811 長野県飯田市松尾上溝２９７１−１","飯田市","商業","35.506303","137.8449172",,"https://maps.google.com/?cid=17029686948759742241","0265-49-8667","true","api","2025-10-31T00:06:41.0049+00:00"
"cf25ee30-2a59-4dfa-8d54-b9a15bb191dc","配食のふれ愛 飯田店","はいしょくのふれあい いいだてん","日本、〒395-0157 長野県飯田市大瀬木４３３８−２","飯田市","その他","35.4925054","137.7925772",,"https://maps.google.com/?cid=4098615801833349677","0265-32-1201","true","api","2025-10-31T00:06:41.635319+00:00"
"26af4df2-c92a-4c40-95d3-bebb3ce0dd8b","ほっともっと 飯田座光寺店","ほっともっと いいだざこうじてん","日本、〒395-0001 長野県飯田市座光寺３７３７−１","飯田市","飲食","35.529789","137.8584606",,"https://maps.google.com/?cid=1183107173329201348","0265-56-8570","true","api","2025-10-31T00:06:42.270273+00:00"
"7808c2a2-90da-4224-851d-b7e099abce5b","飯田運動公園","いいだうんどうこうえん","日本、〒395-0155 長野県飯田市三日市場１９８６","飯田市","観光","35.4860547","137.7985508",,"https://maps.google.com/?cid=1439077704795229901","0265-22-4511","true","api","2025-10-31T00:06:43.194078+00:00"
"f746179e-f14f-42fa-aa2a-1a88d07bf0b6","猿庫の泉","さるこのいずみ","日本、〒395-0000 長野県飯田市上飯田","飯田市","観光","35.5324898","137.789712",,"https://maps.google.com/?cid=18058411118245706490","070-8032-3836","true","api","2025-10-31T00:06:43.81748+00:00"
"24e98cbd-85df-4149-8985-44d2d336418c","中央公園","ちゅうおうこうえん","日本、〒395-0041 長野県飯田市伝馬町１丁目４２","飯田市","観光","35.516559","137.8271315",,"https://maps.google.com/?cid=11210034195396079823",,"true","api","2025-10-31T00:06:44.45602+00:00"
"41260d91-e5d4-4e89-8e82-15719db8d082","松尾鈴岡公園(松尾城跡)","まつおすずおかこうえん(まつおじょうせき)","日本、〒395-0804 長野県飯田市鼎","飯田市","観光","35.4872967","137.8273088",,"https://maps.google.com/?cid=15282781955285918581",,"true","api","2025-10-31T00:06:45.081562+00:00"
"40ccf76c-34fd-496e-83df-db5f53694605","仏性山阿弥陀寺","ぶっしょうさんあみだじ","日本、〒395-0077 長野県飯田市丸山町２丁目６７２８","飯田市","観光","35.5231397","137.8083292",,"https://maps.google.com/?cid=10861680185070987620","0265-52-1880","true","api","2025-10-31T00:06:45.708943+00:00"
"1a1c9fd1-a19c-404b-8c94-5cefb7e0ff64","野底山森林公園","のそこさんしんりんこうえん","日本、〒395-0004 長野県飯田市上郷黒田３８４０","飯田市","観光","35.5401139","137.8180198",,"https://maps.google.com/?cid=3722911002930997232","0265-22-0915","true","api","2025-10-31T00:06:46.34412+00:00"
"4e0afb68-f484-4d90-95cd-30d1519a39ce","龍臥山善勝寺","りゅうがやまぜんかちてら","日本、〒395-0016 長野県飯田市伝馬町２丁目３１","飯田市","観光","35.5185222","137.827874",,"https://maps.google.com/?cid=18337098687945276700","0265-24-0420","true","api","2025-10-31T00:06:46.967586+00:00"
"58a991b6-abdc-4a10-9d4c-5d6addd836e8","風越公園","かざこしこうえん","日本、〒395-0013 長野県飯田市小伝馬町１丁目３５４１−１","飯田市","観光","35.5201326","137.8311763",,"https://maps.google.com/?cid=15962033257269975103","0265-22-4511","true","api","2025-10-31T00:06:47.600101+00:00"
"7a771afc-8a73-441e-afd0-4c21011b0302","風越山麓公園","かざこしさんろくこうえん","日本、〒395-0077 長野県飯田市丸山町４丁目５５１０−８","飯田市","観光","35.5370305","137.8126926",,"https://maps.google.com/?cid=15697477686921478091",,"true","api","2025-10-31T00:06:48.234024+00:00"
"ea25b905-d3e1-43c7-a591-8f1007d5f0c0","柳田國男記念伊那民俗学研究所","やなぎだくにおきねんいなみんぞくがくけんきゅうじょ","日本、〒395-0034 長野県飯田市追手町２丁目６５５","飯田市","観光","35.5117153","137.8319963",,"https://maps.google.com/?cid=12102172576120377890","0265-22-8118","true","api","2025-10-31T00:06:48.862236+00:00"
"a8218681-6eeb-4444-88d7-b26e3219a036","かざこし子どもの森公園","かざこしこどものもりこうえん","日本、〒395-0077 長野県飯田市丸山町４丁目５５００−１","飯田市","観光","35.5296244","137.8161507",,"https://maps.google.com/?cid=15038961077013009451",,"true","api","2025-10-31T00:06:49.504097+00:00"
"ac171054-e3e9-4fad-ba18-f587cf11a6ec","モーリーの森交流館 管理事務所","モーリーのもりこうりゅうかん かんりじむしょ","日本、〒395-0004 長野県飯田市上郷黒田３８４０−３０５","飯田市","観光","35.5408429","137.8173696",,"https://maps.google.com/?cid=15964695180755628118","0265-22-0915","true","api","2025-10-31T00:06:50.136744+00:00"
"ba35ca59-8682-4e5e-8256-ea779e2872a5","恒川官衙遺跡","つねかわかんがいせき","日本、〒395-0001 長野県飯田市座光寺３４４６−３","飯田市","観光","35.5316955","137.8628929",,"https://maps.google.com/?cid=8872032628397339889","0265-22-4511","true","api","2025-10-31T00:06:50.75792+00:00"
"913e3174-71fe-4b03-9808-14ca81c0e072","飯田市川本喜八郎人形美術館","いいだしかわもときはちろうにんぎょうびじゅつかん","日本、〒395-0044 長野県飯田市本町１丁目２","飯田市","観光","35.5149434","137.8257144",,"https://maps.google.com/?cid=5316094862721953194","0265-23-3594","true","api","2025-10-31T00:06:51.394528+00:00"
"890b3812-82d1-4375-b1ad-16daa3766b80","飯田市美術博物館","いいだしびじゅつはくぶつかん","日本、〒395-0034 長野県飯田市追手町２丁目６５５−７","飯田市","観光","35.5119811","137.8305148",,"https://maps.google.com/?cid=12870609284413759258","0265-22-8118","true","api","2025-10-31T00:06:52.03571+00:00"
"52d4af34-547b-4c4f-a8ed-c4a5521fa07e","飯田市立動物園","いいだしりつどうぶつえん","日本、〒395-0046 長野県飯田市扇町３３","飯田市","観光","35.514069","137.824044",,"https://maps.google.com/?cid=14783840296569825373","0265-22-0416","true","api","2025-10-31T00:06:52.669386+00:00"
"8672a5b9-b39a-45dc-9eeb-b51e19f1812f","喬木村歴史民俗資料館","たかぎむられきしみんぞくしりょうかん","日本、〒395-1100 長野県下伊那郡喬木村小川６６９８−２","喬木村","観光","35.5134289","137.8751144",,"https://maps.google.com/?cid=3163855054783998190","0265-33-4508","true","api","2025-10-31T00:06:53.305073+00:00"
"bf77954e-72bd-4215-aedc-ea0ee2732be8","元善光寺","もとぜんこうじ","日本、〒395-0001 長野県飯田市座光寺２６３８","飯田市","観光","35.534046","137.8565443",,"https://maps.google.com/?cid=12336112788888698042","0265-23-2525","true","api","2025-10-31T00:06:53.965066+00:00"
"1c429b77-09b2-41ef-91a1-8f5bad4ace0d","扇町公園","おうぎまちこうえん","日本、〒395-0036 長野県飯田市扇町３３−１","飯田市","観光","35.5135724","137.8230109",,"https://maps.google.com/?cid=14192350896932962719",,"true","api","2025-10-31T00:06:54.60455+00:00"
"4c80df7c-c9f9-4927-bfc5-001bb1f506c5","滝の沢公園","たきのさわこうえん","日本、〒395-0048 長野県飯田市滝の沢 滝の沢６６８１−１","飯田市","観光","35.5253971","137.8088597",,"https://maps.google.com/?cid=6542312629291425964",,"true","api","2025-10-31T00:06:56.413344+00:00"
"ecc1a69f-a33c-4034-8dc0-e93c0cee1a49","白山１号公園","はくさん１ごうこうえん","日本、〒395-0077 長野県飯田市白山町３丁目東１２−５","飯田市","観光","35.5214651","137.8120769",,"https://maps.google.com/?cid=11437923104908099705",,"true","api","2025-10-31T00:06:57.064136+00:00"
"6f91e5c6-b962-462c-a249-8d676d24b986","太宰公園","だざいこうえん","日本、〒395-0041 長野県飯田市中央通り３丁目４","飯田市","観光","35.5176506","137.8242852",,"https://maps.google.com/?cid=9850760800032691249",,"true","api","2025-10-31T00:06:57.716625+00:00"
"2c5d4f96-7fb7-442d-be48-82e83a03a878","アイパーク","アイパーク","日本、〒395-0000 長野県飯田市上飯田５２５９−１２","飯田市","観光","35.51883","137.8203013",,"https://maps.google.com/?cid=4348373108779270529","0265-22-4511","true","api","2025-10-31T00:06:58.345198+00:00"
"2647797c-b025-4dcc-aa8e-c9506b416f25","飯田市 上村 南信濃村合併記念庭園","いいだし うえむら みなみしなのむらがっぺいきねんていえん","日本、〒395-0000 長野県飯田市上飯田飯田駅前","飯田市","観光","35.5190915","137.8210616",,"https://maps.google.com/?cid=17560512297992603860",,"true","api","2025-10-31T00:06:58.993354+00:00"
"468b780f-4cc0-4a83-ae38-760e722d38a8","中央公園（長姫谷川）","ちゅうおうこうえん（おさひめたにがわ）","日本、〒395-0028 長野県飯田市長姫町","飯田市","観光","35.5156556","137.8281751",,"https://maps.google.com/?cid=10424324800378325590",,"true","api","2025-10-31T00:06:59.630335+00:00"
"b79cd69d-80d7-4745-84f5-3f4110b1c070","駅西広場","えきにしひろば","日本、〒395-0051 長野県飯田市高羽町１丁目１","飯田市","観光","35.5202625","137.8209542",,"https://maps.google.com/?cid=11242369708540520251",,"true","api","2025-10-31T00:07:00.25874+00:00"
"955671ea-c182-417e-9b62-fd1a5d491399","中央公園（長姫）","ちゅうおうこうえん（おさひめ）","日本、〒395-0028 長野県飯田市長姫町８６ 中央公園(長姫) 公衆トイレ","飯田市","観光","35.5153761","137.8284149",,"https://maps.google.com/?cid=6729261415757813494",,"true","api","2025-10-31T00:07:00.891325+00:00"
"adf6f0de-b7b6-4a7f-a415-f1a0c7fcb604","駅裏公園","えきうらこうえん","日本、〒395-0051 長野県飯田市高羽町１丁目８−１","飯田市","観光","35.5203132","137.821072",,"https://maps.google.com/?cid=8828914140493171380",,"true","api","2025-10-31T00:07:01.528231+00:00"
"34891d7f-9bda-4ab0-b166-476f129822a6","丸山なかよし広場(丸山1号公園)","まるやまなかよしひろば(まるやま1ごうこうえん)","日本、〒395-0071 長野県飯田市今宮町２丁目１１０","飯田市","観光","35.5191002","137.8166264",,"https://maps.google.com/?cid=14704924626949495030",,"true","api","2025-10-31T00:07:02.17257+00:00"
"c9e57264-db71-45ff-ac87-8bb521edc9cc","中央公園（東和）","ちゅうおうこうえん（とうわ）","日本、〒395-0084 長野県飯田市鈴加町１丁目","飯田市","観光","35.5202958","137.8245076",,"https://maps.google.com/?cid=15110533190782135198",,"true","api","2025-10-31T00:07:02.821299+00:00"
"48b2e9d2-4f03-4373-bf58-32ccf1fabc05","柳田國男館（旧喜談書屋）","やなぎだくにおかん（きゅうきだんしょおく）","日本、〒395-0034 長野県飯田市追手町２丁目６５５−６","飯田市","観光","35.5117068","137.8320281",,"https://maps.google.com/?cid=296914720386788129","0265-22-8118","true","api","2025-10-31T00:07:03.700492+00:00"
"a8a5066c-19d4-4468-b400-c5fac162b840","飯田市歴史研究所","いいだしれきしけんきゅうじょ","日本、〒395-0803 長野県飯田市鼎下山５３８","飯田市","観光","35.5068009","137.8375575",,"https://maps.google.com/?cid=18422628564528485934","0265-53-4670","true","api","2025-10-31T00:07:04.341718+00:00"
"912b5276-13c3-4ae2-a52a-c07cec70df82","信州飯田焼肉研究所","しんしゅういいだやきにくけんきゅうじょ","日本、〒395-0041 長野県飯田市中央通り３丁目９","飯田市","観光","35.5178881","137.8238624",,"https://maps.google.com/?cid=7265822907593115217","0265-48-6844","true","api","2025-10-31T00:07:04.97345+00:00"
"75cebbba-c326-4dcc-866e-7afe4f8f2644","飯田市平和祈念館","いいだしへいわきねんかん","日本、〒395-0086 長野県飯田市東和町２丁目３５ 丘の上結いスクエア 3階","飯田市","観光","35.5196362","137.8225897",,"https://maps.google.com/?cid=7892672852681761409",,"true","api","2025-10-31T00:07:05.609497+00:00"
"811dae0a-08da-4fc6-ad31-f59a1ad22ce9","追手町小学校化石標本室","おうてまちしょうがっこうかせきひょうほんしつ","日本、〒395-0034 長野県飯田市追手町２丁目６７３−１","飯田市","観光","35.5131153","137.8286566",,"https://maps.google.com/?cid=16819670755369503898",,"true","api","2025-10-31T00:07:06.249807+00:00"
"59435be1-f08b-4961-b01c-4a359bf1f5d4","日夏耿之介記念館","ひなつこうのすけきねんかん","日本、〒395-0034 長野県飯田市追手町２丁目６５５","飯田市","観光","35.5118793","137.8319966",,"https://maps.google.com/?cid=12813618751851783642","0265-22-8118","true","api","2025-10-31T00:07:06.879278+00:00"
"74d74cfb-15f8-4b49-ab8f-fe76673c0686","飯田市秀水美人画美術館","いいだししゅうすいびじんがびじゅつかん","日本、〒395-0003 長野県飯田市上郷別府２４２８−１","飯田市","観光","35.5165436","137.8367965",,"https://maps.google.com/?cid=346241931510146472","0265-53-3855","true","api","2025-10-31T00:07:07.52038+00:00"
"f02d0310-2b61-4fde-8d8f-13ba98c564d6","飯田市考古博物館","いいだしこうこはくぶつかん","日本、〒395-0003 長野県飯田市上郷別府２４２８−１","飯田市","観光","35.5164306","137.8371098",,"https://maps.google.com/?cid=14653480637736691244","0265-53-3755","true","api","2025-10-31T00:07:08.195967+00:00"
"92ee8e5a-c771-47ac-915c-ce20bd61f116","竹田扇之助記念国際糸操り人形館","たけだおうぎのじょきねんこくさいいとあやつりにんぎょうかん","日本、〒395-0001 長野県飯田市座光寺２５３５","飯田市","観光","35.532981","137.8534026",,"https://maps.google.com/?cid=16964757778250580129","0265-23-4222","true","api","2025-10-31T00:07:08.833643+00:00"
"9dc8a47d-27d8-4c36-abb4-78e19fccb76e","馬場平伝承館","ばばだいらでんしょうかん","日本、〒395-1107 長野県下伊那郡喬木村小川６６５６","喬木村","観光","35.5150699","137.8747407",,"https://maps.google.com/?cid=16730845730014678967",,"true","api","2025-10-31T00:07:09.458056+00:00"
"6c897854-232d-4f83-a849-ac346968b9ee","北村美術","きたむらびじゅつ","日本、〒395-0001 長野県飯田市座光寺７−１６７","飯田市","その他","35.5439039","137.8369731",,"https://maps.google.com/?cid=5846621922168258366","0265-22-3939","true","api","2025-10-31T00:07:10.321102+00:00"
"af320928-5058-46a7-b74d-98a538df420f","ギャラリー吾亦紅(われもこう)","ギャラリーわれもこう(われもこう)","日本、〒395-0031 長野県飯田市銀座１丁目２−２","飯田市","その他","35.515897","137.8273068",,"https://maps.google.com/?cid=4025050756429596665",,"true","api","2025-10-31T00:07:10.95393+00:00"
"29ea3f0d-f471-498f-80d4-26d0ff7dc070","天龍堂画廊","てんりゅうどうがろう","日本、〒395-0027 長野県飯田市馬場町１丁目１５","飯田市","その他","35.515984","137.8286692",,"https://maps.google.com/?cid=18239249659869044905","0265-23-0620","true","api","2025-10-31T00:07:11.590227+00:00"
"7b1e6c3c-6285-4d0f-bdeb-f219eb080d15","天龍堂美術","てんりゅうどうびじゅつ","日本、〒395-0084 長野県飯田市鈴加町２丁目１７","飯田市","その他","35.5204805","137.8266533",,"https://maps.google.com/?cid=6790211959448319294","0265-22-6901","true","api","2025-10-31T00:07:12.27665+00:00"
"f739b704-4714-4073-8d8a-4cbd21264e88","青楽","あおらく","日本、〒395-0014 長野県飯田市桜町１丁目１９","飯田市","その他","35.5202518","137.8295903",,"https://maps.google.com/?cid=10742961485624089881","0265-56-8455","true","api","2025-10-31T00:07:12.912828+00:00"
"dbff742e-f0c4-4a6b-a86c-83bb63794db7","ギャラリー春草","ギャラリーしゅんそう","日本、〒395-0151 長野県飯田市北方１２７２−３","飯田市","その他","35.5042268","137.7962517",,"https://maps.google.com/?cid=3121315234961178996","0265-25-4472","true","api","2025-10-31T00:07:13.555863+00:00"
"a4e281f9-c960-4ab7-aef0-83c7b5f3e5fb","ART＆interior 潤 by sutoshop","ART＆interior うるう by sutoshop","日本、〒395-0002 長野県飯田市上郷飯沼１８７４−１","飯田市","商業","35.5198712","137.8522478",,"https://maps.google.com/?cid=10339726319830128167","0265-52-6159","true","api","2025-10-31T00:07:14.199718+00:00"
"b2c54657-8d42-44c3-81fb-62e0b8328a93","字遊人 龍月","じ遊じん りゅうつき","日本、〒395-0823 長野県飯田市松尾明７４２５−４","飯田市","その他","35.4946572","137.8524498",,"https://maps.google.com/?cid=7255196443000694054",,"true","api","2025-10-31T00:07:14.839409+00:00"
"4a4c108a-1e31-4d78-8d94-c76ccb200429","どんど水遊び広場","どんどみずあそびひろば","日本、〒395-0077 長野県飯田市丸山町４丁目５５００−５","飯田市","その他","35.5276891","137.8168296",,"https://maps.google.com/?cid=5963527081497936860",,"true","api","2025-10-31T00:07:15.894197+00:00"
"5b0d1f2b-d9b4-48cc-b7f3-1b5fe118cd80","さるくら","さるくら","日本、〒395-0068 長野県飯田市大休７４６２−４９","飯田市","宿泊","35.5254046","137.7896",,"https://maps.google.com/?cid=222014800092160351",,"true","api","2025-10-31T00:07:16.640428+00:00"
"d5196238-886c-4a52-99e2-1aee54b48816","妙琴公園キャンプ場","みょうきんこうえんキャンプじょう","日本、〒395-0807 長野県飯田市鼎切石５２４７−１","飯田市","宿泊","35.5243415","137.7882763",,"https://maps.google.com/?cid=16672398334350208108",,"true","api","2025-10-31T00:07:17.565808+00:00"
"c5f35612-8bc1-47eb-9a48-f1d0d2c4eaf9","野底山森林公園 キャンプ場","のそこさんしんりんこうえん キャンプじょう","日本、〒395-0004 長野県飯田市上郷黒田３８４０","飯田市","宿泊","35.546444","137.8155453",,"https://maps.google.com/?cid=4384534690465352329","0265-22-0915","true","api","2025-10-31T00:07:18.216734+00:00"
"eb50682a-f3fd-44da-8073-1572a8fd2b30","RVパーク 飯田さるくら","RVパーク いいださるくら","日本、〒395-0068 長野県飯田市大休７４６２−４９","飯田市","宿泊","35.5244255","137.7899778",,"https://maps.google.com/?cid=11935926341060083584","0265-23-3437","true","api","2025-10-31T00:07:18.969672+00:00"
"5aa9a52b-906e-4415-8165-fd4cf1c21ccc","虚空蔵山","こくぞうざん","日本、〒395-0048 長野県飯田市滝の沢 虚空蔵山","飯田市","その他","35.540496","137.8009054",,"https://maps.google.com/?cid=420945936104670695",,"true","api","2025-10-31T00:07:19.734393+00:00"
"189a72d7-5b6f-49d1-9762-0a56c2fa8485","土曽川","どそがわ","日本、〒395-0002 長野県飯田市上郷飯沼 土曽川","飯田市","その他","35.5289455","137.8532102",,"https://maps.google.com/?cid=18019594350169013375",,"true","api","2025-10-31T00:07:20.366696+00:00"
"ef6ea25a-0595-430b-8151-00f856d61c50","天竜川","てんりゅうがわ","日本、〒395-1107 長野県下伊那郡喬木村 天竜川","喬木村","その他","35.519797","137.8684773",,"https://maps.google.com/?cid=10436638852851763656",,"true","api","2025-10-31T00:07:20.996803+00:00"
"0f826a91-4262-4e2a-847f-154ce3578c5f","天竜川","てんりゅうがわ","日本、〒399-2603 長野県飯田市下久堅知久平 天竜川","飯田市","その他","35.4837205","137.8514912",,"https://maps.google.com/?cid=12312232120965306956",,"true","api","2025-10-31T00:07:21.633584+00:00"
"6fc107d4-ff9b-4b0c-a0a0-0edd4ca26ed0","新川","しんかわ","日本、〒399-2565 長野県飯田市桐林 新川","飯田市","その他","35.4749666","137.8284915",,"https://maps.google.com/?cid=17677043567389004824",,"true","api","2025-10-31T00:07:22.262205+00:00"
"6180dc38-e0fe-4deb-a0d3-b72bea2c26f4","ホテルオオハシ飯田","ホテルオオハシいいだ","日本、〒395-0033 長野県飯田市常盤町２８−２８ ２８番地","飯田市","宿泊","35.512856","137.8276452",,"https://maps.google.com/?cid=7353276520839264100","0265-22-5184","true","api","2025-10-31T00:07:23.049521+00:00"
"5b4ad91f-edbd-4048-8927-15b952eba5ad","ホテルルートイン飯田","ホテルルートインいいだ","日本、〒395-0152 長野県飯田市育良町２丁目3−５","飯田市","宿泊","35.5013947","137.8011302",,"https://maps.google.com/?cid=4541183091609906801","050-1807-0923","true","api","2025-10-31T00:07:23.679779+00:00"
"f4ccf2c8-858e-45ca-a426-aa654fd74d0e","タウンホテルなかや","タウンホテルなかや","日本、〒395-0041 長野県飯田市中央通り１丁目２６","飯田市","宿泊","35.5158248","137.8270185",,"https://maps.google.com/?cid=16790826800245414256","0265-22-7480","true","api","2025-10-31T00:07:24.364426+00:00"
"d1e5d34a-3975-4b85-804a-190a8ac5e68c","花薫る宿 よし乃亭","はなかおるやど よし乃てい","日本、〒399-2603 長野県飯田市下久堅知久平１８１５","飯田市","宿泊","35.481843","137.850666",,"https://maps.google.com/?cid=1199742991695213193","0265-29-8130","true","api","2025-10-31T00:07:25.012587+00:00"
"d7dff7f8-e05e-4767-8e74-7512f957fe6c","ホテル弥生","ホテルやよい","日本、〒395-0083 長野県飯田市錦町２丁目１１","飯田市","宿泊","35.5216274","137.8270935",,"https://maps.google.com/?cid=10960260264533231962","0265-22-1686","true","api","2025-10-31T00:07:25.658784+00:00"
"7d286051-33bb-4e53-be0f-8a5c4bfeaa8a","ビジネスホテルエルボン飯田","ビジネスホテルエルボンいいだ","日本、〒395-0152 長野県飯田市育良町１丁目１４−７","飯田市","宿泊","35.5049446","137.7999518",,"https://maps.google.com/?cid=17270204601216152788","0265-25-1111","true","api","2025-10-31T00:07:26.294396+00:00"
"da1d7bc0-4034-4a51-be32-073ae3c6846d","飯田ステーションホテルまつむら","いいだステーションホテルまつむら","日本、〒395-0041 長野県飯田市中央通り４丁目１３","飯田市","宿泊","35.5190588","137.82215",,"https://maps.google.com/?cid=2732006542163160060","0265-22-4411","true","api","2025-10-31T00:07:26.933404+00:00"
"0132f420-2c03-40aa-9753-61da2873149d","殿岡温泉 湯元 湯～眠","とのおかおんせん ゆもと ゆ～ねむ","日本、〒395-0153 長野県飯田市上殿岡６２８ 2F","飯田市","宿泊","35.5004137","137.8077575",,"https://maps.google.com/?cid=635764310338108176","0265-28-1111","true","api","2025-10-31T00:07:27.569736+00:00"
"f62a47ea-691c-4535-a828-625acc9cce8f","シルクホテル","シルクホテル","日本、〒395-0083 長野県飯田市錦町１丁目１０","飯田市","宿泊","35.5213797","137.8242737",,"https://maps.google.com/?cid=3296583772366432514","0265-23-8383","true","api","2025-10-31T00:07:28.209547+00:00"
"6da4e723-1bfa-4a33-87bf-844e6503a6bc","民宿ファミリーハウス若松","みんしゅくファミリーハウスわかまつ","日本、〒395-0027 長野県飯田市馬場町２丁目５７８−３","飯田市","宿泊","35.515143","137.8298437",,"https://maps.google.com/?cid=5292689332552808487","0265-24-4815","true","api","2025-10-31T00:07:28.847724+00:00"
"bd45c90b-b444-4f6d-91fe-26272f5cf7ee","砂払温泉","すなはらいおんせん","日本、〒395-0062 長野県飯田市砂払町１丁目６９５","飯田市","宿泊","35.5214655","137.8081543",,"https://maps.google.com/?cid=11888247225045767902","0265-22-1209","true","api","2025-10-31T00:07:29.47808+00:00"
"219d7d74-6677-4e11-8991-1e5e6c0fbdf8","天空の城 三宜亭本館","てんくうのしろ さんむべちんほんかん","日本、〒395-0034 長野県飯田市追手町２丁目６４１−１０","飯田市","宿泊","35.5116401","137.8330081",,"https://maps.google.com/?cid=16891418761449465577","0265-24-0242","true","api","2025-10-31T00:07:30.104383+00:00"
"c77a39c8-203d-4edf-9906-5a9dbe913384","シルクホテル アネックス","シルクホテル アネックス","日本、〒395-0083 長野県飯田市錦町１丁目１ １ 395-0083","飯田市","宿泊","35.5209167","137.8242754",,"https://maps.google.com/?cid=14946581749201684980","0265-23-8383","true","api","2025-10-31T00:07:30.72599+00:00"
"e064dd92-b122-4791-9083-62280250bb3d","信州たかもり温泉湯ケ洞","しんしゅうたかもりおんせんゆケほら","日本、〒399-3105 長野県下伊那郡高森町牛牧８３４−５","高森町","宿泊","35.5503453","137.8397702",,"https://maps.google.com/?cid=14493052877695456966","0265-35-8270","true","api","2025-10-31T00:07:31.357738+00:00"
"47dac08b-65bc-4671-8b0c-585dc83bdc92","ホテル久井・中国料理 龍苑","ホテルくい・ちゅうごくりょうり りゅうえん","日本、〒395-0054 長野県飯田市箕瀬町１丁目２４４８","飯田市","宿泊","35.5143619","137.8202392",,"https://maps.google.com/?cid=14487510538930607948","0265-22-0772","true","api","2025-10-31T00:07:31.987208+00:00"
"fc0ef152-cd15-441c-a828-47dc7b7d31cb","大久保荘","おおくぼそう","日本、〒395-0053 長野県飯田市大久保町２６３０−１","飯田市","宿泊","35.5136016","137.8214853",,"https://maps.google.com/?cid=8590497925207672783","0265-22-1607","true","api","2025-10-31T00:07:32.61874+00:00"
"cd34226c-93a8-4ec6-8baf-f9eb34435f5e","hotel IIDA STAY","hotel IIDA STAY","日本、〒395-0045 長野県飯田市知久町２丁目9","飯田市","宿泊","35.5151205","137.8240148",,"https://maps.google.com/?cid=11181308564879190457","0265-48-0487","true","api","2025-10-31T00:07:33.271903+00:00"
"5ff9ba65-8b66-482b-a3c5-fa0558bd68aa","Bongo","Bongo","日本、〒395-0044 長野県飯田市本町２丁目５","飯田市","宿泊","35.5155445","137.8246132",,"https://maps.google.com/?cid=10227413580159557446",,"true","api","2025-10-31T00:07:33.891367+00:00"
"c47f6730-ed4a-462d-862e-f4a27d65c526","対山荘","たいさんそう","日本、〒395-0041 長野県飯田市中央通り３丁目３６","飯田市","宿泊","35.5177532","137.8245932",,"https://maps.google.com/?cid=2205280196461163933","0265-22-1334","true","api","2025-10-31T00:07:34.587078+00:00"
"dbf13c7d-155a-4bf3-9022-72ad88355d3e","ウッドコート","ウッドコート","日本、〒395-0043 長野県飯田市通り町１丁目１","飯田市","宿泊","35.515259","137.8264643",,"https://maps.google.com/?cid=1115791698441765062",,"true","api","2025-10-31T00:07:35.222943+00:00"
"dc9eed22-e8ea-4651-a2bf-074bf1bd2d36","飯田市","いいだし","日本、長野県飯田市","飯田市","その他","35.51487","137.8217006",,"https://maps.google.com/?cid=5640068265963006150",,"true","api","2025-10-31T00:07:36.157648+00:00"
"912b821a-d803-4335-8569-d3d947a072dc","奥村商事（資） 飯田営業所","おくむらしょうじ（し） いいだえいぎょうしょ","日本、〒395-0002 長野県飯田市上郷飯沼１５９７−４","飯田市","その他","35.5216673","137.8507737",,"https://maps.google.com/?cid=12161254273558207784","0265-53-3950","true","api","2025-10-31T00:07:36.784804+00:00"
"d0ab80a5-4ba0-45ee-a2cd-38bd0c4bcd25","（有）長谷部住設","（ゆう）はせべじゅう設","日本、〒395-0155 長野県飯田市三日市場９２５−２","飯田市","その他","35.488689","137.802834",,"https://maps.google.com/?cid=4147325848347740808","0265-25-8848","true","api","2025-10-31T00:07:37.417964+00:00"
"37b304e0-f301-42e0-89e3-fe196b50d623","美容室エレガンス","びようしつエレガンス","日本、〒395-0805 長野県飯田市鼎一色2F そよらイオン飯田アップルロード店","飯田市","その他","35.5011332","137.8167066",,"https://maps.google.com/?cid=2696539519788664864","0265-53-8885","true","api","2025-10-31T00:07:38.03912+00:00"
"aba2ae6b-00bc-4168-b805-95a6098127ce","レゴリス","レゴリス","日本、〒395-0004 長野県飯田市上郷黒田１５１９","飯田市","その他","35.5280742","137.8371989",,"https://maps.google.com/?cid=10360888011633822000","0265-24-3288","true","api","2025-10-31T00:07:38.665023+00:00"
"a4fdd2a2-4f37-48c3-895a-86894f3b63e0","Agu hair sora 飯田","Agu hair sora いいだ","日本、〒395-0804 長野県飯田市鼎名古熊２５０５−１２ 2F","飯田市","その他","35.4977887","137.8316771",,"https://maps.google.com/?cid=17404570012879986337","0265-48-5795","true","api","2025-10-31T00:07:39.288362+00:00"
"ab71532b-73eb-4f10-ac1d-16a6f34fddfc","ハートケア蒼い風かすたねっと","ハートケアあおいかぜかすたねっと","日本、〒395-0071 長野県飯田市今宮町２丁目５９","飯田市","その他","35.5205892","137.8186382",,"https://maps.google.com/?cid=3636029583875478200","0265-49-4005","true","api","2025-10-31T00:07:39.919763+00:00"
"f456b5a4-534c-4195-a5be-c7a703c3b246","グループホーム大門","グループホームおおもん","日本、〒395-0011 長野県飯田市大門町２２","飯田市","その他","35.5235518","137.8287716",,"https://maps.google.com/?cid=1721918456384123632","0265-48-0877","true","api","2025-10-31T00:07:40.548502+00:00"
"7f822af6-e604-40ae-8f47-04b0f60317f7","片桐美容商事","かたぎりびようしょうじ","日本、〒395-0011 長野県飯田市大門町１２７−１","飯田市","その他","35.5229744","137.830553",,"https://maps.google.com/?cid=1418985930274004128","0265-22-2393","true","api","2025-10-31T00:07:41.174415+00:00"
"f558fb11-a17d-446d-aaf1-c678c790da12","金山工業（株）","かなやまこうぎょうかぶしきがいしゃ","日本、〒395-0804 長野県飯田市鼎２４８７−１","飯田市","その他","35.49936","137.827844",,"https://maps.google.com/?cid=4084562547516454741","0265-24-3618","true","api","2025-10-31T00:07:41.827749+00:00"
"0992b1b3-5cd5-4ddd-a646-618df7dc16db","（有）飯田スクリーン工業","（ゆう）いいだスクリーンこうぎょう","日本、〒395-0151 長野県飯田市北方３４８−７","飯田市","その他","35.5060769","137.802306",,"https://maps.google.com/?cid=7541868904220518789","0265-24-5471","true","api","2025-10-31T00:07:42.445577+00:00"
"c4f605d4-af4f-4e80-8e1c-c73056abd909","豊作ネット","ほうさくネット","日本、〒395-0151 長野県飯田市北方１５７６−５","飯田市","商業","35.5098537","137.7993436",,"https://maps.google.com/?cid=1166625490435165382","0265-25-8631","true","api","2025-10-31T00:07:43.069692+00:00"
"d93d85bf-98c2-4d95-ae3a-3cb5c2fdd027","杉本印刷（株） オフリン工場","すぎもといんさつかぶしきがいしゃ オフリンこうじょう","日本、〒395-0004 長野県飯田市上郷黒田２２９０","飯田市","その他","35.5311191","137.8376426",,"https://maps.google.com/?cid=14625709469059654055","0265-53-8611","true","api","2025-10-31T00:07:43.711106+00:00"
"9d5409a5-9207-49b6-aa3e-14cf197ea6e6","一陽会","いちようかい","日本、〒395-0151 長野県飯田市北方","飯田市","その他","35.5084163","137.7963938",,"https://maps.google.com/?cid=9242096739024156296",,"true","api","2025-10-31T00:07:44.349494+00:00"
"904f30ed-a969-4035-881a-d9792c28ed05","（有）エヌケイモールド","（ゆう）エヌケイモールド","日本、〒395-0156 長野県飯田市中村１２４６−５","飯田市","その他","35.4848979","137.7920262",,"https://maps.google.com/?cid=15616054439451737325","0265-25-6951","true","api","2025-10-31T00:07:44.993107+00:00"
"caa8d228-7c33-4a74-9da2-bdb698d599c8","上郷黒田","かみさとくろだ","日本、〒395-0004 長野県飯田市上郷黒田","飯田市","その他","35.5267135","137.8367524",,"https://maps.google.com/?cid=8281461354492542970",,"true","api","2025-10-31T00:07:45.621858+00:00"
"4cd291be-2875-4d75-ba7b-f32627becbdd","ヨコハマタイヤサービス 甲信飯田店","ヨコハマタイヤサービス こうしんいいだてん","日本、〒395-0821 長野県飯田市松尾新井６８２４","飯田市","商業","35.4983622","137.8587292",,"https://maps.google.com/?cid=12286104249591689983","0265-48-0890","true","api","2025-10-31T00:07:46.750125+00:00"
"78cc4f99-de4b-4e57-b0ac-7aac1d277a9b","金券ショップ アシスト","きんけんショップ アシスト","日本、〒395-0041 長野県飯田市中央通り４丁目５１","飯田市","商業","35.518047","137.822905",,"https://maps.google.com/?cid=2686110504067650609","0265-48-0444","true","api","2025-10-31T00:07:47.37796+00:00"
"3637d2b8-7cfb-49d1-bb19-b3e70828d680","アシスト","アシスト","日本、〒395-0083 長野県飯田市錦町２丁目１","飯田市","商業","35.5211678","137.8256538",,"https://maps.google.com/?cid=12977537638920879424","0265-23-8081","true","api","2025-10-31T00:07:47.999094+00:00"
"54af9551-5d36-4d70-8a98-d30f1f05f777","select shop HOPE","select shop HOPE","日本、〒395-0002 長野県飯田市上郷飯沼１６８３−１","飯田市","商業","35.5240228","137.8501181",,"https://maps.google.com/?cid=12102288962843850553","0265-24-3690","true","api","2025-10-31T00:07:48.622497+00:00"
"49fc4393-e96d-4ec1-9bad-245b00f69597","平安堂 飯田店","へいあんどう いいだてん","日本、〒395-0804 長野県飯田市鼎名古熊６６０−１","飯田市","商業","35.4986674","137.8170346",,"https://maps.google.com/?cid=9797425401396920082","0265-24-4545","true","api","2025-10-31T00:07:49.253536+00:00"
"39fd78b2-b398-4c4e-aa36-945bd2edd11e","呉服のべにや","ごふくのべにや","日本、〒395-0085 長野県飯田市吾妻町２７","飯田市","商業","35.5194583","137.8264763",,"https://maps.google.com/?cid=3139179044315910219","0265-22-1349","true","api","2025-10-31T00:07:49.881341+00:00"
"bf32a6bc-aa60-4838-a4d1-2b0dec65889b","AOKI 飯田インター店","AOKI いいだインターてん","日本、〒395-0805 長野県飯田市鼎一色１４０−２","飯田市","商業","35.5014197","137.8105568",,"https://maps.google.com/?cid=17974333698197407718","0265-53-4288","true","api","2025-10-31T00:07:50.515849+00:00"
"2c86e31f-cc6a-44ef-be52-2ba6e1f1ee4f","澤村屋呉服店","さわむらやごふくてん","日本、〒395-0045 長野県飯田市知久町１丁目２２","飯田市","商業","35.5142279","137.8248944",,"https://maps.google.com/?cid=8316509086060345175","0265-24-5100","true","api","2025-10-31T00:07:51.134368+00:00"
"1f27420b-d24f-434e-b86a-8a76ea62f65e","ツノダ銀座本店","ツノダぎんざほんてん","日本、〒395-0031 長野県飯田市銀座４丁目１","飯田市","商業","35.5142767","137.8260963",,"https://maps.google.com/?cid=8429004730649785496","0265-23-1321","true","api","2025-10-31T00:07:51.753705+00:00"
"d7d34e83-8fa2-4836-b395-9df48f6cc129","ラプリ","ラプリ","日本、〒395-0804 長野県飯田市鼎名古熊１９９７−３","飯田市","商業","35.4965434","137.8273599",,"https://maps.google.com/?cid=5921318712286570761","0265-56-8783","true","api","2025-10-31T00:07:52.378712+00:00"
"bdc52e8b-15f1-4ca4-8bb3-f7ca131e1065","高田薬局","たかだやっきょく","日本、〒395-0041 長野県飯田市中央通り３丁目44−４４ 3","飯田市","商業","35.5178729","137.8233342",,"https://maps.google.com/?cid=16990150963306248296","0265-56-8550","true","api","2025-10-31T00:07:53.002209+00:00"
"ba607448-76f3-4a7e-b14e-7f53ff16b062","グレース","グレース","日本、〒395-0031 長野県飯田市銀座３丁目７ 堀端ビル 1階","飯田市","商業","35.5146646","137.8266564",,"https://maps.google.com/?cid=4654117687133445690","0265-49-3955","true","api","2025-10-31T00:07:53.622287+00:00"
"4be4bd16-29b9-43d5-a1fb-e47df2896e81","赤門や","あかもんや","日本、〒395-0806 長野県飯田市鼎上山１４５３−５","飯田市","商業","35.5024067","137.8289357",,"https://maps.google.com/?cid=9007891359118469044","0120-787-688","true","api","2025-10-31T00:07:54.254066+00:00"
"19673cc9-8130-47ab-a02f-4b6f668caaf4","丸山食品","まるやましょくひん","日本、〒395-0041 長野県飯田市中央通り４丁目３１","飯田市","商業","35.518974","137.822754",,"https://maps.google.com/?cid=18113649171760785872","0265-22-1315","true","api","2025-10-31T00:07:54.875079+00:00"
"38d3f796-f482-487c-a335-3416523a1498","NTPトヨタ信州 飯田インター店","NTPトヨタしんしゅう いいだインターてん","日本、〒395-0152 長野県飯田市育良町２丁目２−１","飯田市","商業","35.5009226","137.8007253",,"https://maps.google.com/?cid=12859899109507912838","0265-25-8200","true","api","2025-10-31T00:07:55.492921+00:00"
"a71a4fa0-31a4-4a9b-8dd5-0741321c441c","キラヤ 竜丘店","キラヤ たつおかてん","日本、〒399-2561 長野県飯田市駄科５８５−２","飯田市","商業","35.477941","137.835075",,"https://maps.google.com/?cid=7007433427378849396","0265-26-8000","true","api","2025-10-31T00:07:56.371067+00:00"
"2c98f7e0-a4d3-4eaf-8e30-3ed115c3d64f","Ａ・コープ たかぎ店","Ａ・コープ たかぎてん","日本、〒395-1100 長野県下伊那郡喬木村１２８２","喬木村","商業","35.5180345","137.874419",,"https://maps.google.com/?cid=14422362977247982320","0265-33-4488","true","api","2025-10-31T00:07:56.99478+00:00"
"c98f9c1d-c50e-4d64-bd09-70ee0d481aa1","イオン 飯田店","イオン いいだてん","日本、〒395-0002 長野県飯田市上郷飯沼１５７５","飯田市","商業","35.5234194","137.8511615",,"https://maps.google.com/?cid=3151170377788187858","0265-52-9111","true","api","2025-10-31T00:07:57.617973+00:00"
"873140b0-9fd3-45e7-9994-dc1a19915951","なみきマーケット","なみきマーケット","日本、〒395-0044 長野県飯田市本町１丁目１５","飯田市","商業","35.5147438","137.8253813",,"https://maps.google.com/?cid=6397256193729746742","0265-49-4550","true","api","2025-10-31T00:07:58.254335+00:00"
"1048ea9b-7ec6-44c1-802e-7fdb122ea177","イオンスタイル 飯田アップルロード","イオンスタイル いいだアップルロード","日本、〒395-0805 長野県飯田市鼎一色４５６","飯田市","商業","35.50076","137.8167293",,"https://maps.google.com/?cid=14380966085685645123","0265-22-5531","true","api","2025-10-31T00:07:58.883727+00:00"
"a576391a-7c5a-4450-be50-2727cbd22146","キラヤ 黒田店","キラヤ くろだてん","日本、〒395-0004 長野県飯田市上郷黒田１５４９−１","飯田市","商業","35.5288954","137.8380266",,"https://maps.google.com/?cid=1386626789558498211","0265-52-1811","true","api","2025-10-31T00:07:59.50257+00:00"
"c97a3e59-ea6e-42d0-a515-3f04f7f670ae","アミカ 飯田店","アミカ いいだてん","日本、〒395-0152 長野県飯田市育良町１丁目１７−１４","飯田市","商業","35.5053655","137.801332",,"https://maps.google.com/?cid=15378861347874460277","0265-25-0211","true","api","2025-10-31T00:08:00.134248+00:00"
"897ceb1f-0c69-42ca-8704-99e820376f36","中国食品 騰飛商店","ちゅうごくしょくひん あがひしょうてん","日本、〒395-0816 長野県飯田市松尾２４５９−６","飯田市","商業","35.5009533","137.8422508",,"https://maps.google.com/?cid=12542318361806674956","0265-52-5058","true","api","2025-10-31T00:08:00.840633+00:00"
"9b0c50cb-855b-43cf-aa2c-f9e98b595946","フレッシュトキワ","フレッシュトキワ","日本、〒395-0811 長野県飯田市松尾２９４５−１１","飯田市","商業","35.5058066","137.8462225",,"https://maps.google.com/?cid=9029044298544548452","0265-23-3535","true","api","2025-10-31T00:08:01.457701+00:00"
"8bf2f4ea-104b-41af-bd6e-e86c43e5e24a","田口アルプス農園","たぐちアルプスのうえん","日本、〒395-0157 長野県飯田市大瀬木２０２７","飯田市","商業","35.5024237","137.7795592",,"https://maps.google.com/?cid=15647163101387682695",,"true","api","2025-10-31T00:08:02.076815+00:00"
"03e0d7e3-ff80-4607-9f1f-5eccb3113527","エーコープ あいぱんいいだ店","エーコープ あいぱんいいだてん","日本、〒399-2565 長野県飯田市桐林１０４０−２","飯田市","商業","35.473435","137.826318",,"https://maps.google.com/?cid=15929258295887085330","0265-26-8320","true","api","2025-10-31T00:08:02.694358+00:00"
"1503780b-1980-411f-8d7f-a402c0821527","ローソン 飯田丸山町店","ローソン いいだまるやままちてん","日本、〒395-0077 長野県飯田市丸山町２丁目１−１","飯田市","商業","35.5209057","137.8113022",,"https://maps.google.com/?cid=7121168673697032769","0265-23-7015","true","api","2025-10-31T00:08:03.681633+00:00"
"c4ffae7e-4021-480a-8d0d-242876ca3cc6","モンマートいぎみ","モンマートいぎみ","日本、〒395-0801 長野県飯田市鼎中平２５４４−１ ハイツいぎみ","飯田市","商業","35.5074086","137.8242643",,"https://maps.google.com/?cid=13710583674446810244","0265-22-0777","true","api","2025-10-31T00:08:04.312832+00:00"
"b61875d2-90ea-4816-a891-48ef75a35ff7","ファミリーマート 飯田鼎切石店","ファミリーマート いいだかなえきりいしてん","日本、〒395-0807 長野県飯田市鼎切石４６５７−１","飯田市","商業","35.5120099","137.8049426",,"https://maps.google.com/?cid=10356647617873470189","0265-56-4018","true","api","2025-10-31T00:08:04.944586+00:00"
"4d6c4d56-c800-4436-b842-9b58efbf743f","セブンイレブン 飯田毛賀店","セブンイレブン いいだけがてん","日本、〒395-0813 長野県飯田市毛賀２３９−２","飯田市","商業","35.4850429","137.8380756",,"https://maps.google.com/?cid=7197138672542094180","0265-22-0709","true","api","2025-10-31T00:08:05.568945+00:00"
"ed70ae06-dfa2-4ef7-be22-3f1fb4b4a56d","ファミリーマート 飯田松尾新井店","ファミリーマート いいだまつおあらいてん","日本、〒395-0821 長野県飯田市松尾６７５５−１","飯田市","商業","35.5000111","137.8596618",,"https://maps.google.com/?cid=3813626311201643823","0265-21-4315","true","api","2025-10-31T00:08:06.197395+00:00"
"1d2c863b-e05c-41dd-895d-4635a95e1b61","ファミリーマート 東かなえ店","ファミリーマート あずまかなえてん","日本、〒395-0817 長野県飯田市鼎東鼎１６８","飯田市","商業","35.5048915","137.8424966",,"https://maps.google.com/?cid=9604830910452113384","0265-56-4412","true","api","2025-10-31T00:08:06.823782+00:00"
"59f973dc-3cbd-47f5-a77b-2c6bcd531ecc","ファミリーマート 飯田東和町店","ファミリーマート いいだとうわまちてん","日本、〒395-0086 長野県飯田市東和町３丁目５２６５−１","飯田市","商業","35.5204356","137.8226905",,"https://maps.google.com/?cid=4089842671961156567","0265-56-0043","true","api","2025-10-31T00:08:07.452097+00:00"
"bc19aa79-0d4b-4f49-989e-9506b20f6a5e","ファミリーマート 飯田丸山店","ファミリーマート いいだまるやまてん","日本、〒395-0077 長野県飯田市丸山町１丁目２−３","飯田市","商業","35.5215519","137.8149727",,"https://maps.google.com/?cid=18094647516329972213","0265-21-3006","true","api","2025-10-31T00:08:08.07502+00:00"
"0c422bba-6367-4706-85c1-217702473a94","飯田市役所","いいだしやくしょ","日本、〒395-8501 長野県飯田市大久保町２５３４","飯田市","商業","35.5148057","137.8218293",,"https://maps.google.com/?cid=11001742809594364674","0265-22-4511","true","api","2025-10-31T00:08:08.931323+00:00"
"25901a27-8065-4731-86f1-690b776c1671","アピタ飯田店","アピタいいだてん","日本、〒395-0804 長野県飯田市鼎名古熊2461番地","飯田市","商業","35.5000686","137.8297389",,"https://maps.google.com/?cid=17393676379916563343","0570-009-374","true","api","2025-10-31T00:08:09.55811+00:00"
"b8e248b0-4922-464f-8e58-a43a3f45e28c","そよら飯田アップルロード","そよらいいだアップルロード","日本、〒395-0805 長野県飯田市鼎一色４５６","飯田市","商業","35.500744","137.8167463",,"https://maps.google.com/?cid=7795225657617495892",,"true","api","2025-10-31T00:08:10.193634+00:00"
"4ffc9924-16c0-4ce4-9590-74476b4a946d","夢屋書店 アピタ飯田店","ゆめやしょてん アピタいいだてん","日本、〒395-0804 長野県飯田市鼎名古熊2461番地","飯田市","商業","35.5000683","137.8297478",,"https://maps.google.com/?cid=630457881893932845","0570-009-374","true","api","2025-10-31T00:08:11.071565+00:00"
"dc170c13-8cb6-4093-9ea8-fc01ce5b4204","裏山しいちゃん","うらやましいちゃん","日本、〒395-0052 長野県飯田市元町５４５５−２ 裏山しいちゃん","飯田市","商業","35.5178788","137.8193761",,"https://maps.google.com/?cid=14612021192255712922","0265-49-8948","true","api","2025-10-31T00:08:11.704017+00:00"
"8bcd9d7f-5543-4bc0-bfff-ead6d9bc168a","平安堂 飯田店 外商部","へいあんどう いいだてん がいしょうぶ","日本、〒395-0066 長野県飯田市羽場２０１９−２","飯田市","商業","35.5193988","137.7962687",,"https://maps.google.com/?cid=1165060878839812496","0265-23-4811","true","api","2025-10-31T00:08:12.344697+00:00"
"9e311701-35a8-4fd7-80e4-55a12d0d8e13","（株）平安堂ホールセール 飯田営業所","かぶしきがいしゃへいあんどうホールセール いいだえいぎょうしょ","日本、〒395-0066 長野県飯田市羽場２０１９−２","飯田市","商業","35.5192336","137.7962752",,"https://maps.google.com/?cid=4473508096269266741","0265-23-9071","true","api","2025-10-31T00:08:12.96563+00:00"
"5d157d62-1df0-461a-9f50-8dee8b084bf8","後藤書店","ごとうしょてん","日本、〒395-0054 長野県飯田市箕瀬町１丁目","飯田市","商業","35.5146536","137.8198643",,"https://maps.google.com/?cid=16164287544171112842",,"true","api","2025-10-31T00:08:13.607156+00:00"
"cb201661-48e9-4f34-8549-78893e1cf4e7","ひなみ文庫","ひなみぶんこ","日本、〒395-0801 長野県飯田市鼎中平２２８１−１","飯田市","商業","35.50766","137.8243953",,"https://maps.google.com/?cid=13603960449222442531","0265-49-4560","true","api","2025-10-31T00:08:14.243048+00:00"
"35d02e8b-3122-4586-aca2-e5a9f2097cbc","平安堂 座光寺店","へいあんどう ざこうじてん","日本、〒395-0001 長野県飯田市座光寺３７１５","飯田市","商業","35.5307865","137.8600308",,"https://maps.google.com/?cid=17990909406631016006","0265-23-4646","true","api","2025-10-31T00:08:14.879548+00:00"
"7b9f273d-4ca4-4693-82db-220c02c537ce","ファッションセンターしまむら 飯田店（長野県）","ファッションセンターしまむら いいだてん（ながのけん）","日本、〒395-0805 長野県飯田市鼎一色１６３","飯田市","商業","35.5002947","137.8125996",,"https://maps.google.com/?cid=16374356026211649675","0265-49-3062","true","api","2025-10-31T00:08:15.776586+00:00"
"f8c99d2d-8aa9-4ec6-8f64-3e68597e709f","エステサロン レノーズ飯田","エステサロン レノーズいいだ","日本、〒395-0041 長野県飯田市中央通り３丁目53−４ ホワイトビル 1F","飯田市","商業","35.5172891","137.8243236",,"https://maps.google.com/?cid=13342809854795965138","0265-53-3378","true","api","2025-10-31T00:08:16.402278+00:00"
"17c0b5e6-c6cf-4d12-a739-d52447c3a92c","西松屋 飯田店","にしまつや いいだてん","日本、〒395-0804 長野県飯田市鼎名古熊２２０６ 番1","飯田市","商業","35.4991335","137.8237073",,"https://maps.google.com/?cid=6972625922253999671","080-7181-4331","true","api","2025-10-31T00:08:17.042274+00:00"
"f711d87c-8e82-4209-a399-c99038a002fc","ジーンズショップ赤石アップルロード店","ジーンズショップあかいしアップルロードてん","日本、〒395-0152 長野県飯田市育良町２丁目１−１","飯田市","商業","35.5009583","137.799511",,"https://maps.google.com/?cid=759751343645688885","0265-25-6025","true","api","2025-10-31T00:08:17.671515+00:00"
"3c7be2f3-7b96-4bb2-929d-d8e12b0909c6","お祭用品の片桐屋","おまつりようひんのかたぎりや","日本、〒395-0043 長野県飯田市通り町１丁目７","飯田市","商業","35.5155036","137.825873",,"https://maps.google.com/?cid=3391572360905072031","0265-22-0889","true","api","2025-10-31T00:08:18.294292+00:00"
"2be05628-2b7a-4392-bb91-6b29b8033e40","片桐屋本多商店","かたぎりやほんだしょうてん","日本、〒395-0045 長野県飯田市知久町２丁目１２","飯田市","商業","35.5151846","137.8237353",,"https://maps.google.com/?cid=7811595826202529933","0265-22-0107","true","api","2025-10-31T00:08:18.967435+00:00"
"3442f33f-e242-4d62-b50b-42a940077bda","ハニーズ飯田店","ハニーズいいだてん","日本、〒395-0805 長野県飯田市鼎一色４５６ イオン飯田アップルロード店 ２階","飯田市","商業","35.50076","137.8167293",,"https://maps.google.com/?cid=5698287282476415341","0265-56-8755","true","api","2025-10-31T00:08:19.603217+00:00"
"89982d9c-3aa7-4ca3-b679-6759927c5e4b","クリークス（ＣＲＥＥＫＳ）","クリークス（ＣＲＥＥＫＳ）","日本、〒395-0041 長野県飯田市中央通り１丁目１６","飯田市","商業","35.5163239","137.8262487",,"https://maps.google.com/?cid=16739260725969912400","0265-52-2438","true","api","2025-10-31T00:08:20.22273+00:00"
"238a49f2-d02e-4984-9064-a393b2e1cde0","ハリカ飯田店","ハリカいいだてん","日本、〒395-0815 長野県飯田市松尾常盤台６４−１","飯田市","商業","35.5013533","137.834976",,"https://maps.google.com/?cid=12802390235938634649","0265-53-7000","true","api","2025-10-31T00:08:20.846558+00:00"
"d52129e5-9028-485b-b59d-e5cd54ff665f","フィズ","フィズ","日本、〒395-0803 長野県飯田市鼎８５７−１","飯田市","商業","35.5057173","137.8331877",,"https://maps.google.com/?cid=9287082528858156773","0265-52-1245","true","api","2025-10-31T00:08:21.479488+00:00"
"2c82d186-a424-47c6-b0ea-a96262d9c305","yamagishi","yamagishi","日本、〒395-0804 長野県飯田市鼎２４６１","飯田市","商業","35.4996134","137.8293097",,"https://maps.google.com/?cid=13111084506192220183","0265-24-9805","true","api","2025-10-31T00:08:22.11929+00:00"
"f4c4e8d8-4ff3-4ef7-abc0-0c0505bcc1ef","ダイアナ スパイラル","ダイアナ スパイラル","日本、〒395-0063 長野県飯田市羽場町２丁目15番地5 メゾン小林 1−B","飯田市","商業","35.5188644","137.808012",,"https://maps.google.com/?cid=14083163600656974165","0265-21-5525","true","api","2025-10-31T00:08:22.754533+00:00"
"1128a84d-57ab-459f-8946-ae08d0bae003","フレンズ 飯田店","フレンズ いいだてん","日本、〒395-0814 長野県飯田市八幡町４８１−４","飯田市","商業","35.4982346","137.834578",,"https://maps.google.com/?cid=4548034549688235879","0265-56-8650","true","api","2025-10-31T00:08:23.386621+00:00"
"4e93551a-0fe6-46db-95f4-52234b7180b7","オーディオビート","オーディオビート","日本、〒395-0044 長野県飯田市本町４丁目１３０２−６ 日通プロパンビル","飯田市","商業","35.5175122","137.8204702",,"https://maps.google.com/?cid=11458433269343735515","0265-59-8321","true","api","2025-10-31T00:08:24.391033+00:00"
"d797aabe-cb9e-463b-9327-50fc62077ed2","キャスティネット","キャスティネット","日本、〒395-0003 長野県飯田市上郷別府８５１−１","飯田市","商業","35.5066659","137.8512213",,"https://maps.google.com/?cid=3915888002666550292","0265-48-0755","true","api","2025-10-31T00:08:25.023015+00:00"
"e85e731a-9e62-40f6-ae12-b0b7e5366dd8","高木写真館","たかぎしゃしんかん","日本、〒395-0028 長野県飯田市長姫町４","飯田市","商業","35.5151296","137.8283301",,"https://maps.google.com/?cid=1464751948058785275","0265-22-2215","true","api","2025-10-31T00:08:25.646062+00:00"
"4c50e948-cfa2-4898-b929-ecb132f4c38c","株式会社横井/塗装防水無料相談窓口 飯田店","かぶしきがいしゃよこい/とそうぼうすいむりょうそうだんまどぐち いいだてん","日本、〒395-0011 長野県飯田市大門町３８６２−６","飯田市","商業","35.5249587","137.8275873",,"https://maps.google.com/?cid=13227703735516024515","0265-48-0265","true","api","2025-10-31T00:08:26.277525+00:00"
"7a4de94d-d9ab-46e1-b9cd-9acc2f96fa9f","杉山カメラ","すぎやまカメラ","日本、〒395-0814 長野県飯田市八幡町八幡町２１６０−７","飯田市","商業","35.4977029","137.8404979",,"https://maps.google.com/?cid=13443248839604796667","0265-22-3246","true","api","2025-10-31T00:08:26.922235+00:00"
"419eddd5-9a36-43ae-8bc9-fcd1c75f1cf1","ケーズデンキ 飯田インター店","ケーズデンキ いいだインターてん","日本、〒395-0151 長野県飯田市北方８３３ 番1","飯田市","商業","35.5001474","137.7975787",,"https://maps.google.com/?cid=12452261434248892387","0265-28-2511","true","api","2025-10-31T00:08:27.545826+00:00"
"97db7f6c-408a-4383-8ebe-8b9df61e9d01","ゲオ座光寺店","ゲオざこうじてん","日本、〒395-0001 長野県飯田市座光寺３７１５","飯田市","商業","35.5309991","137.8600507",,"https://maps.google.com/?cid=9799892913160980211","0265-59-7733","true","api","2025-10-31T00:08:28.17857+00:00"
"aafdd372-52a5-4ce0-880a-8f5c5d338498","ヤマダデンキ テックランド飯田店","ヤマダデンキ テックランドいいだてん","日本、〒395-0002 長野県飯田市上郷飯沼１９６４−１","飯田市","商業","35.5197783","137.8499945",,"https://maps.google.com/?cid=3268431268870380997","0265-24-8111","true","api","2025-10-31T00:08:28.809291+00:00"
"74660091-8afe-43a2-ba00-c99dbbf111dc","DCM 飯田上郷店","DCM いいだかみごうてん","日本、〒395-0004 長野県飯田市上郷黒田１１８５","飯田市","商業","35.5268233","137.8347409",,"https://maps.google.com/?cid=2840619034820218627","0265-56-8610","true","api","2025-10-31T00:08:29.44117+00:00"
"2cf917a7-ad46-427a-b011-3850d012626c","Wonderful PHOTO 松沢カメラ","Wonderful PHOTO まつざわカメラ","日本、〒395-0045 長野県飯田市知久町３丁目３３","飯田市","商業","35.5154975","137.8225013",,"https://maps.google.com/?cid=1295551183791923502","0265-22-5478","true","api","2025-10-31T00:08:30.067558+00:00"
"3eb3e967-63f9-41bf-8d9b-a240d79aaeef","オーディオショップライン","オーディオショップライン","日本、〒395-0085 長野県飯田市吾妻町１１６−１","飯田市","商業","35.518263","137.8267932",,"https://maps.google.com/?cid=13409698464120332326","0265-23-9407","true","api","2025-10-31T00:08:30.695003+00:00"
"e6f0c368-e93d-4551-ad31-b7a826aea41b","（株）小西カメラ","（かぶ）こにしカメラ","日本、〒395-0016 長野県飯田市伝馬町１丁目３１","飯田市","商業","35.5171338","137.8281202",,"https://maps.google.com/?cid=667956549519455804","0265-24-6100","true","api","2025-10-31T00:08:31.318089+00:00"
"5d44b4d6-e494-4b51-92ac-b6fbdf9d9876","ルネッサンスプラザ・写真・座光寺店","ルネッサンスプラザ・しゃしん・ざこうじてん","日本、〒395-0001 長野県飯田市座光寺２丁目４６２３−１","飯田市","商業","35.5179096","137.8290693",,"https://maps.google.com/?cid=15775206226090699831","0120-583-310","true","api","2025-10-31T00:08:31.941705+00:00"
"be6d8a53-9f96-4e0b-bb53-263e818509f8","ウエハラカメラ店","ウエハラカメラてん","日本、〒395-0014 長野県飯田市桜町２丁目３２ かざこしコーポ ２F","飯田市","商業","35.5214953","137.8288811",,"https://maps.google.com/?cid=7800658078926514816","0265-22-0551","true","api","2025-10-31T00:08:32.577187+00:00"
"cd5d0773-da49-4bdd-81d9-02725543fa49","株式会社ウェブウェア","かぶしきがいしゃウェブウェア","日本、〒395-0025 長野県飯田市東中央通５丁目８０−２ 仁科ビル 2階","飯田市","商業","35.5100277","137.8375749",,"https://maps.google.com/?cid=10922088797329921593","0265-48-0491","true","api","2025-10-31T00:08:33.196456+00:00"
"2832616b-8498-4594-b0b6-47661ebc3cd4","早川衣裳ブライダルステーション","はやかわいしょうブライダルステーション","日本、〒395-0024 長野県飯田市東栄町３３３８−２","飯田市","商業","35.513103","137.838589",,"https://maps.google.com/?cid=6353983315176076787","0265-24-0022","true","api","2025-10-31T00:08:33.821611+00:00"
"147e329b-ff88-4b04-a7a3-0c9fcff61ecb","カメラのキタムラ 飯田／アピタ飯田店","カメラのキタムラ いいだ／アピタいいだてん","日本、〒395-0804 長野県飯田市鼎名古熊２４６１ アピタ飯田店 2F 0","飯田市","商業","35.4999818","137.8299371",,"https://maps.google.com/?cid=16439295105082060368","0265-49-4301","true","api","2025-10-31T00:08:34.44735+00:00"
"c7d8d24b-0530-4ae5-a171-8c40cfafa921","ハードオフ飯田かなえ店","ハードオフいいだかなえてん","日本、〒395-0804 長野県飯田市鼎名古熊２１３８−１","飯田市","商業","35.4980102","137.8257267",,"https://maps.google.com/?cid=5142788794623243298","0265-49-3077","true","api","2025-10-31T00:08:35.073589+00:00"
"46afb79a-4006-4667-870d-a9d915c96fb7","（有）マツミ","（ゆう）マツミ","日本、〒395-0151 長野県飯田市北方１５０７","飯田市","商業","35.5076118","137.8008074",,"https://maps.google.com/?cid=1499784337830861493","0265-25-2317","true","api","2025-10-31T00:08:35.69834+00:00"
"5cad6d10-c43b-47e2-9031-33543fc1c055","スナップス飯田店","スナップスいいだてん","日本、〒395-0002 長野県飯田市上郷飯沼１５７５","飯田市","商業","35.523314","137.850718",,"https://maps.google.com/?cid=9871639807098640573","0265-21-3330","true","api","2025-10-31T00:08:36.389049+00:00"
"b91d35ec-7eff-4b7d-bbd2-6eb8e6f2d119","（株）西広","（かぶ）にしひろ","日本、〒395-0801 長野県飯田市鼎２２８２","飯田市","商業","35.5082072","137.8242568",,"https://maps.google.com/?cid=18095974296399585489","0265-23-7104","true","api","2025-10-31T00:08:37.275608+00:00"
"da1b2cda-857d-4e1c-ac5e-65e3c47d3668","イケガミ","イケガミ","日本、〒395-0031 長野県飯田市銀座３丁目１−１","飯田市","商業","35.5148006","137.8264433",,"https://maps.google.com/?cid=12440943514732280842","0265-22-0284","true","api","2025-10-31T00:08:37.931391+00:00"
"e5c41406-2e93-4883-b8ea-5ec1fb79be16","快眠アトリエ 小池ふとん店","かいみんアトリエ こいけふとんみせ","日本、〒395-0011 長野県飯田市大門町１１１","飯田市","商業","35.5223524","137.8298696",,"https://maps.google.com/?cid=7095490284358408742","0265-22-2374","true","api","2025-10-31T00:08:38.561912+00:00"
"14f7816d-79c9-4ac6-96b8-02b8f9d64515","松川家具センター アップルロード店","まつかわかぐセンター アップルロードてん","日本、〒395-0804 長野県飯田市鼎２１９０−１","飯田市","商業","35.4985949","137.8226847",,"https://maps.google.com/?cid=4529469866205208042","0265-22-2250","true","api","2025-10-31T00:08:39.193888+00:00"
"7a44fd46-145e-4f43-ae3e-ebde3865af24","ミヤウチ 飯田本社","ミヤウチ いいだほんしゃ","日本、〒395-0823 長野県飯田市松尾明７５８７−２","飯田市","商業","35.4920519","137.8500689",,"https://maps.google.com/?cid=4530679858569082911","0265-24-5511","true","api","2025-10-31T00:08:39.836726+00:00"
"05a530f3-458c-4c59-b380-92b9fe616301","いんてり屋 やまかぜ","いんてりや やまかぜ","日本、〒395-0001 長野県飯田市座光寺５５２６−１ ヤマキチ木材内","飯田市","商業","35.5252394","137.8657407",,"https://maps.google.com/?cid=5165005813873665210","0265-22-0248","true","api","2025-10-31T00:08:40.472795+00:00"
"8e910ef6-9362-43de-8199-137f5e8fa1b6","カインズ 飯田店","カインズ いいだてん","日本、〒395-0153 長野県飯田市上殿岡５６１−１","飯田市","商業","35.5002237","137.8063651",,"https://maps.google.com/?cid=13990591250310265778","0265-25-8222","true","api","2025-10-31T00:08:41.100778+00:00"
"b9b839b4-15cc-4af6-90fb-9023e6403d91","ダイソー 飯田インター店","ダイソー いいだインターてん","日本、〒395-0805 長野県飯田市鼎一色１３５","飯田市","商業","35.5017379","137.8092386",,"https://maps.google.com/?cid=973883236896402733","082-420-0100","true","api","2025-10-31T00:08:41.726505+00:00"
"fb30373b-5716-4f45-8471-1f557463b318","田畑家具店","たばたかぐてん","日本、〒395-0045 長野県飯田市知久町２丁目２３","飯田市","商業","35.5150236","137.8233153",,"https://maps.google.com/?cid=9204145387396585093","0265-24-1546","true","api","2025-10-31T00:08:42.353667+00:00"
"7d407a30-3f33-404c-8192-5068fe9a5ad4","ふとん屋 飯田製綿","ふとんや いいだせいめん","日本、〒395-0055 長野県飯田市旭町２７６−１","飯田市","商業","35.5141242","137.8169865",,"https://maps.google.com/?cid=8557604933005804576","0265-22-1385","true","api","2025-10-31T00:08:42.983696+00:00"
"4d90de46-5ad4-4f4c-9957-d782b720890d","宮崎木工所","みやざきもっこうしょ","日本、〒395-0056 長野県飯田市大通２丁目２３７−１３","飯田市","商業","35.5142802","137.8169475",,"https://maps.google.com/?cid=14061139544861446247","0265-22-2777","true","api","2025-10-31T00:08:43.64871+00:00"
"680fbc8a-70fa-4860-8718-ce516b7132ee","まくらと布団の金山","まくらとふとんのかなやま","日本、〒395-0018 長野県飯田市諏訪町27","飯田市","商業","35.5226983","137.8285289",,"https://maps.google.com/?cid=13419839301053908160","0265-22-2014","true","api","2025-10-31T00:08:44.273915+00:00"
"3880db55-6a63-48fa-ac51-5c7c9442f538","カミジマ家具販売","カミジマかぐはんばい","日本、〒395-0805 長野県飯田市鼎２４３−１","飯田市","商業","35.5040924","137.8138445",,"https://maps.google.com/?cid=5022138242146706648","0265-23-5159","true","api","2025-10-31T00:08:44.90225+00:00"
"a2564715-40c0-41ac-af7e-828c1c30b7c4","まると","まると","日本、〒395-0004 長野県飯田市上郷黒田７７５−５","飯田市","商業","35.5244077","137.8325438",,"https://maps.google.com/?cid=686527699906232548","0265-22-1722","true","api","2025-10-31T00:08:45.527528+00:00"
"7a54f0ad-2f0f-4b84-b404-1f70ed8791a9","THREEPPY 飯田インター店","THREEPPY いいだインターてん","日本、〒395-0805 長野県飯田市鼎一色１３５","飯田市","商業","35.5017989","137.80936",,"https://maps.google.com/?cid=390260143272213399","082-420-0100","true","api","2025-10-31T00:08:46.150767+00:00"
"88ef6e44-0baf-4062-aba2-c7b97a787e53","春日井リサイクルショップ","かすがいリサイクルショップ","日本、〒395-0804 長野県飯田市鼎名古熊２０９３−３","飯田市","商業","35.4980324","137.828809",,"https://maps.google.com/?cid=10978385860399966477","0265-24-4330","true","api","2025-10-31T00:08:46.777222+00:00"
"330f6ea7-15ed-42dc-9922-451a8e18e582","白子木工所","しらこもっこうしょ","日本、〒395-0004 長野県飯田市上郷黒田３０８８−４","飯田市","商業","35.532837","137.832458",,"https://maps.google.com/?cid=803868587368289687","0265-22-8340","true","api","2025-10-31T00:08:47.40096+00:00"
"9b82167e-f103-45cd-93e0-73455540cac4","永井家具店","ながいかぐてん","日本、〒395-0003 長野県飯田市上郷別府８８９−１","飯田市","商業","35.5072956","137.8493685",,"https://maps.google.com/?cid=17308166643850017537","0265-24-3223","true","api","2025-10-31T00:08:48.050057+00:00"
"93f1aa0b-2270-4fc2-84b1-39b358796240","佐々木金物店","ささきかなものてん","日本、〒395-0803 長野県飯田市鼎下山１０９５","飯田市","商業","35.5067607","137.8318021",,"https://maps.google.com/?cid=6293190794417111021","0265-24-2318","true","api","2025-10-31T00:08:48.917781+00:00"
"d204be16-1819-49c5-81b5-8d561f60abf6","（有）蜂屋商店","（ゆう）はちやしょうてん","日本、〒395-0041 長野県飯田市中央通り４丁目５３","飯田市","商業","35.5180098","137.8230333",,"https://maps.google.com/?cid=547675427078896399","0265-22-1190","true","api","2025-10-31T00:08:49.554497+00:00"
"0478f93b-28aa-40a5-9b26-5602575be95b","一誠商事 飯田店","いっせいしょうじ いいだてん","日本、〒395-0822 長野県飯田市松尾新井７２２９−２","飯田市","商業","35.4952697","137.8564522",,"https://maps.google.com/?cid=3763287715884652924","0265-53-1390","true","api","2025-10-31T00:08:50.192656+00:00"
"dbcf0055-9862-4530-8a9a-c0dd54079070","（有）イケガミ 総合金物センター","（ゆう）イケガミ そうごうかなものセンター","日本、〒395-0031 長野県飯田市銀座３丁目１−１","飯田市","商業","35.5146365","137.8261493",,"https://maps.google.com/?cid=17806498512150619871","0265-22-0284","true","api","2025-10-31T00:08:50.832874+00:00"
"43fddb8e-0c52-493c-9356-b10e90f044f7","河尻刃物店","かわしりはものてん","日本、〒395-0014 長野県飯田市桜町１丁目１１−１１","飯田市","商業","35.5195595","137.82967",,"https://maps.google.com/?cid=14856262894164585457","0265-22-1591","true","api","2025-10-31T00:08:51.494246+00:00"
"03bb7270-32d2-4c40-bba9-e522f2ce3b84","宮田屋金物店飯田橋営業所","みやたやかなものてんいいだばしえいぎょうしょ","日本、〒395-0817 長野県飯田市鼎東鼎３１２","飯田市","商業","35.507049","137.839132",,"https://maps.google.com/?cid=7989751598835112313","0265-23-4800","true","api","2025-10-31T00:08:52.120949+00:00"
"679fe60c-a429-42a2-bde2-7061593031de","伊東刃物店","いとうはものてん","日本、〒395-0003 長野県飯田市上郷別府１４７６−７","飯田市","商業","35.5076727","137.8448704",,"https://maps.google.com/?cid=14566545509197102829","0265-22-6975","true","api","2025-10-31T00:08:52.755289+00:00"
"5a90bf8b-8805-4892-9317-2420569952c9","沢屋金物店","さわやかなものてん","日本、〒395-0814 長野県飯田市八幡町２１４８−２","飯田市","商業","35.4966962","137.8399291",,"https://maps.google.com/?cid=2528524082413202561","0265-22-0843","true","api","2025-10-31T00:08:53.390563+00:00"
"193188c7-6849-4ccc-bf6f-6769e8629696","入舟屋金物店","いりふねやかなものてん","日本、〒395-0824 長野県飯田市松尾４７７１−３","飯田市","商業","35.4848307","137.8468375",,"https://maps.google.com/?cid=2033313292556257114","0265-22-4706","true","api","2025-10-31T00:08:54.033192+00:00"
"ab211d0c-49f8-4dd9-9dee-a5f45d15b498","（有）松村金物店","（ゆう）まつむらかなものてん","日本、〒399-2561 長野県飯田市駄科５７８−３","飯田市","商業","35.4776299","137.8344018",,"https://maps.google.com/?cid=3549280184843171030","0265-26-9602","true","api","2025-10-31T00:08:54.682412+00:00"
"e7ca1e3b-5cd6-4b9a-8d02-cfe62ccb017a","ツノダ アピタ店【ジュエリー・時計・メガネ専門店】","ツノダ アピタてん【ジュエリー・とけい・メガネせんもんてん】","日本、〒395-0804 長野県飯田市鼎２４６１ アピタ店店内 ２F","飯田市","商業","35.4996654","137.8300102",,"https://maps.google.com/?cid=7876864440488318216","0265-53-2537","true","api","2025-10-31T00:08:55.598814+00:00"
"11a94c9e-56fc-4b7c-bdcd-2b277a8e4775","アジアン・ロータス","アジアン・ロータス","日本、〒395-0002 長野県飯田市上郷飯沼１８８９−１","飯田市","商業","35.5193469","137.8515108",,"https://maps.google.com/?cid=6838844732458779375","0265-24-4887","true","api","2025-10-31T00:08:56.232726+00:00"
"f555aa78-dc72-4790-91f9-891454058de1","ジュエリー工房 宮沢","ジュエリーこうぼう みやざわ","日本、〒395-0043 長野県飯田市通り町４丁目１３１５−１","飯田市","商業","35.5183471","137.8210234",,"https://maps.google.com/?cid=5503981661521119656","0265-22-0813","true","api","2025-10-31T00:08:56.88028+00:00"
"d9cad49c-2c76-48f3-8170-03e9b52c38aa","買取専門店さすがや そよら飯田アップルロード店","かいとりせんもんてんさすがや そよらいいだアップルロードてん","日本、〒395-0805 長野県飯田市鼎一色４５６ 2F そよら飯田アップルロード店","飯田市","商業","35.500839","137.8164959",,"https://maps.google.com/?cid=15550568394864885213","0265-48-5492","true","api","2025-10-31T00:08:57.512962+00:00"
"f2f6bbac-8361-4d7e-af3f-4bf09fd8de6c","一真堂 飯田本店","いちしんどう いいだほんてん","日本、〒395-0805 長野県飯田市鼎一色１１１","飯田市","商業","35.5025954","137.8103338",,"https://maps.google.com/?cid=16556280180728798199","0265-24-6663","true","api","2025-10-31T00:08:58.140646+00:00"
"53faa2a8-3c1d-47ab-b004-937c4f994e84","買取専門店buybuy 飯田店","かいとりせんもんてんbuybuy いいだてん","日本、〒395-0804 長野県飯田市鼎名古熊６６０−７ 関島テナント 2号","飯田市","商業","35.4993713","137.8159387",,"https://maps.google.com/?cid=2648395976939683871","0265-48-0119","true","api","2025-10-31T00:08:58.763825+00:00"
"d33cfb8d-81de-4a85-9906-b577c2e0296c","JUNO","JUNO","日本、〒395-0804 長野県飯田市鼎名古熊２４６１","飯田市","商業","35.5000722","137.8297305",,"https://maps.google.com/?cid=14020438778205293304",,"true","api","2025-10-31T00:08:59.398539+00:00"
"d086729e-66ee-4d24-b121-e10ce653974c","アンジェリーク飯田店","アンジェリークいいだてん","日本、〒395-0003 長野県飯田市上郷別府１７１４−２","飯田市","商業","35.5130414","137.8479474",,"https://maps.google.com/?cid=14954464887251831553","0265-49-3886","true","api","2025-10-31T00:09:00.281217+00:00"
"959658ea-7daa-4257-9c19-d6cb298d6a43","買取大吉 飯田松尾店","かいとりだいきち いいだまつおてん","日本、〒395-0811 長野県飯田市松尾上溝２７００−１ １F","飯田市","商業","35.502038","137.843658",,"https://maps.google.com/?cid=6657407913546413876","0265-49-3434","true","api","2025-10-31T00:09:00.91064+00:00"
"89575dd7-bdd1-4e5d-baeb-aa5d56a95aaa","ABC-MART飯田店","ABC-MARTいいだてん","日本、〒395-0804 長野県飯田市鼎名古熊２１８２−１","飯田市","商業","35.4983315","137.8231683",,"https://maps.google.com/?cid=3950900136930522779","0265-59-7101","true","api","2025-10-31T00:09:01.76408+00:00"
"7ac1084f-9b05-4e36-a0da-dbbd21b31120","シューマート 飯田座光寺店","シューマート いいだざこうじてん","日本、〒395-0001 長野県飯田市座光寺4597ｰ1","飯田市","商業","35.5303872","137.8606803",,"https://maps.google.com/?cid=15090770904903540615","0265-24-7100","true","api","2025-10-31T00:09:02.384165+00:00"
"0c8ed826-9ee7-4d4c-bc89-6ea3621ccdd7","フィール アイ","フィール アイ","日本、〒395-0045 長野県飯田市知久町１丁目１２","飯田市","商業","35.5144699","137.8252395",,"https://maps.google.com/?cid=12056863301362062153","0265-22-1892","true","api","2025-10-31T00:09:03.01534+00:00"
"45d2f4ae-759e-4ec6-8426-cdb249610544","いちはし","いちはし","日本、〒395-0045 長野県飯田市知久町１丁目１２","飯田市","商業","35.5144362","137.8252573",,"https://maps.google.com/?cid=16351502602557429410","0265-22-1892","true","api","2025-10-31T00:09:03.647224+00:00"
"5fda2f79-638c-4e00-a920-e3cef5f7d4a1","疲れない靴 カインド","つかれないくつ カインド","日本、〒395-0041 長野県飯田市中央通り３丁目１４","飯田市","商業","35.5179617","137.8236631",,"https://maps.google.com/?cid=16123608180002920124","0265-23-9241","true","api","2025-10-31T00:09:04.273531+00:00"
"e7eca320-1bbb-4bd6-a033-59a5a854d953","みよしや","みよしや","日本、〒395-0041 長野県飯田市中央通り３丁目１０","飯田市","商業","35.5178984","137.8238434",,"https://maps.google.com/?cid=4437680229640267101","0265-22-2207","true","api","2025-10-31T00:09:04.90937+00:00"
"6fc92ba9-6523-4302-829f-b1a25931fe35","（有）丸昭靴鞄店","（ゆう）まるあきらくつかばんてん","日本、〒395-0085 長野県飯田市吾妻町１２９","飯田市","商業","35.51835","137.826065",,"https://maps.google.com/?cid=18343666034005220681","0265-23-0520","true","api","2025-10-31T00:09:05.550077+00:00"
"c14cf462-6c43-4b2c-9f22-be054d703374","アスビー 飯田アップルロード店","アスビー いいだアップルロードてん","日本、〒395-0805 長野県飯田市鼎一色４５６ イオン飯田アップルロード店内","飯田市","商業","35.500197","137.8160026",,"https://maps.google.com/?cid=13800627791356293276","0265-52-1808","true","api","2025-10-31T00:09:06.191549+00:00"
"ba48c1e0-f79c-459e-a200-ac0ca2d5cc2b","シューマート 飯田インター店","シューマート いいだインターてん","日本、〒395-0804 長野県飯田市鼎名古熊2135ｰ1","飯田市","商業","35.4987248","137.826133",,"https://maps.google.com/?cid=10689141406370100618","0265-21-1571","true","api","2025-10-31T00:09:06.837241+00:00"
"678d48c8-be2b-47d2-9067-41c30ac2c2ad","グリーンボックス 飯田店","グリーンボックス いいだてん","日本、〒395-0002 長野県飯田市上郷飯沼１５７５ イオン飯田店内","飯田市","商業","35.5233781","137.8506027",,"https://maps.google.com/?cid=1084110011039898942","0265-21-4035","true","api","2025-10-31T00:09:07.47723+00:00"
"1fbf707b-959c-42be-8a75-c52ab178cc4c","美容整体ビーケア","びようせいたいビーケア","日本、〒395-0014 長野県飯田市桜町１丁目４０","飯田市","その他","35.519833","137.829325",,"https://maps.google.com/?cid=4872589459464392303","0265-22-0313","true","api","2025-10-31T00:09:08.34447+00:00"
"012d53fd-2da4-475d-b68d-afa9b48eccd0","稲丘鍼灸接骨院","いなおか鍼やいとせっこついん","日本、〒395-0804 長野県飯田市鼎名古熊2381番地13","飯田市","その他","35.5008114","137.8282448",,"https://maps.google.com/?cid=12127772966325644262","0265-23-6166","true","api","2025-10-31T00:09:08.975411+00:00"
"58f63201-8373-4fd4-918e-66c59101afbf","draw.","draw.","日本、〒395-0804 長野県飯田市鼎名古熊２１０４−１","飯田市","その他","35.49888","137.827208",,"https://maps.google.com/?cid=5819942285279418138","0265-23-7799","true","api","2025-10-31T00:09:09.612825+00:00"
"81e1f6c7-1ce6-42c4-8a2d-d87ccfd71c84","リヴィエラ","リヴィエラ","日本、〒395-0002 長野県飯田市上郷飯沼１８０９−１０","飯田市","その他","35.5213183","137.8496258",,"https://maps.google.com/?cid=4896683360584308881","0265-53-3315","true","api","2025-10-31T00:09:10.242873+00:00"
"def62d73-c377-460d-96ef-02b196510342","RIPPLE(サロンリプル)","RIPPLE(サロンリプル)","日本、〒395-0152 長野県飯田市育良町３丁目３−１９","飯田市","その他","35.5015825","137.8033943",,"https://maps.google.com/?cid=6865519657298965105","0265-24-7390","true","api","2025-10-31T00:09:10.871267+00:00"
"16f197fe-6372-409d-bed7-326b56cc839c","POLA WHスピカ","POLA WHスピカ","日本、〒395-0002 長野県飯田市上郷飯沼３６３４−８","飯田市","その他","35.5176762","137.8546332",,"https://maps.google.com/?cid=1637861836347980422","0265-53-5144","true","api","2025-10-31T00:09:11.50147+00:00"
"ff89307f-9b91-4fa7-9dd3-a595f55d4bab","ポーラ ザビューティ飯田店","ポーラ ザビューティいいだてん","日本、〒395-0806 長野県飯田市鼎上山１８５０−１","飯田市","その他","35.5037409","137.8232663",,"https://maps.google.com/?cid=9494243435831333068","0265-23-5018","true","api","2025-10-31T00:09:12.140735+00:00"
"9a7fc6bc-8c52-4b7f-930f-36b989c62541","ウェル・カム","ウェル・カム","日本、〒395-0063 長野県飯田市羽場町２丁目１５−１","飯田市","その他","35.5187206","137.8086232",,"https://maps.google.com/?cid=7517307332471884800","0265-53-8855","true","api","2025-10-31T00:09:12.877006+00:00"
"2eaef8b9-c9e0-485a-a2b9-23346ffd707e","Ｄｉｏｎｅ飯田店 美肌脱毛 フェイシャル 痩身 ブライダルエステ","Ｄｉｏｎｅいいだてん びはだだつもう フェイシャル そうしん ブライダルエステ","日本、〒395-0805 長野県飯田市鼎一色１６２−６","飯田市","商業","35.5004541","137.8122718",,"https://maps.google.com/?cid=13057027926752390076","0265-48-6959","true","api","2025-10-31T00:09:13.501137+00:00"
"02ade460-353a-414e-ab62-09459d05d7d5","美楽","びらく","日本、〒395-0804 長野県飯田市鼎名古熊２６７１ 2F","飯田市","その他","35.5005574","137.8349145",,"https://maps.google.com/?cid=13980106045315333932","0265-55-0551","true","api","2025-10-31T00:09:14.121726+00:00"
"eae04b81-3c4b-402e-a049-bfbb39b2dda2","モイスティーヌ 飯田サロン","モイスティーヌ いいだサロン","日本、〒395-0814 長野県飯田市八幡町４８５","飯田市","その他","35.4980603","137.8348552",,"https://maps.google.com/?cid=12290557355376243997","0265-49-8205","true","api","2025-10-31T00:09:14.746923+00:00"
"18e42db1-251b-444b-992a-22f8ff0f532e","まつげ専門店Angela","まつげせんもんてんAngela","日本、〒395-0155 長野県飯田市三日市場１２０８","飯田市","その他","35.4905882","137.7968911",,"https://maps.google.com/?cid=1385663734576380562","0265-48-0433","true","api","2025-10-31T00:09:15.371276+00:00"
"1f313302-3921-4dc9-ae9a-af623d66dad1","アーユルヴェーダ ルリアン","アーユルヴェーダ ルリアン","日本、〒395-0001 長野県飯田市座光寺３９７７−９ 骨盤矯正 姿勢矯正","飯田市","その他","35.5293151","137.8546237",,"https://maps.google.com/?cid=12542537379212145442",,"true","api","2025-10-31T00:09:16.008351+00:00"
"bc19194a-66b6-4a04-8682-41e02307b401","松浦鍼灸院","まつうら鍼やいといん","日本、〒395-0157 長野県飯田市大瀬木４２１７−２","飯田市","その他","35.4924731","137.7864076",,"https://maps.google.com/?cid=1169466530528744146","0265-25-2468","true","api","2025-10-31T00:09:16.629469+00:00"
"4555bb2d-803b-442d-a8fd-9d6f2f48860f","ＰＯＬＡ ａｍｉショップ","ＰＯＬＡ ａｍｉショップ","日本、〒395-0001 長野県飯田市座光寺３５３１−２２","飯田市","商業","35.533515","137.8596756",,"https://maps.google.com/?cid=2721246943948271401",,"true","api","2025-10-31T00:09:17.259635+00:00"
"0f82fc8f-c156-4902-b93e-4801a9eaf256","ラプア(ファッションスクエア・オリヤマ)","ラプア(ファッションスクエア・オリヤマ)","日本、〒399-2565 長野県飯田市桐林１７８６−１","飯田市","その他","35.4720333","137.824252",,"https://maps.google.com/?cid=15411784231104052427","0265-26-8661","true","api","2025-10-31T00:09:17.88478+00:00"
"27213f89-aea0-44b2-aa52-34161b299bdb","さくら鍼灸接骨院","さくら鍼やいとせっこついん","日本、〒395-1100 長野県下伊那郡喬木村１２９０−５","喬木村","その他","35.5189401","137.875143",,"https://maps.google.com/?cid=7449620089767370224","0120-813-737","true","api","2025-10-31T00:09:18.536503+00:00"
"dda0a90e-f251-4409-a7ac-d21ca70bc6d3","WAVE-CLIP(ウェーブ クリップ)","WAVE-CLIP(ウェーブ クリップ)","日本、〒395-0804 長野県飯田市鼎名古熊２０３４−１","飯田市","その他","35.4974324","137.8274658",,"https://maps.google.com/?cid=4283786548797530436","0265-52-6772","true","api","2025-10-31T00:09:19.158959+00:00"
"b4c7f037-2255-4d15-b6ed-a8112d69e453","理容 カヤマ","りよう カヤマ","日本、〒395-0023 長野県飯田市江戸浜町３６３７−１","飯田市","その他","35.5152356","137.8336527",,"https://maps.google.com/?cid=1674541403185798196","0265-22-3071","true","api","2025-10-31T00:09:20.026321+00:00"
"3215007f-8db7-4bcb-8b29-91177606b0ac","ｉｓｍ(イズム)","ｉｓｍ(イズム)","日本、〒395-0806 長野県飯田市鼎３８０３−１","飯田市","その他","35.5070018","137.8097708",,"https://maps.google.com/?cid=15498478743715242351","0265-53-0490","true","api","2025-10-31T00:09:20.655952+00:00"
"694f3cab-3988-481c-b607-45719d32a440","アリュール・アール・ヘアー（ＡＬＬＵＲＥ・Ｒ・ＨＡＩＲ）","アリュール・アール・ヘアー（ＡＬＬＵＲＥ・Ｒ・ＨＡＩＲ）","日本、〒395-0804 長野県飯田市鼎２５１５−６","飯田市","その他","35.4991215","137.8315578",,"https://maps.google.com/?cid=8332280990532194547","0265-52-5454","true","api","2025-10-31T00:09:21.284893+00:00"
"4f3d0fee-c6d6-4ed1-8185-35f195fea91a","ニュートラル・ヘア","ニュートラル・ヘア","日本、〒395-0016 長野県飯田市伝馬町２丁目２７","飯田市","その他","35.5180071","137.8288527",,"https://maps.google.com/?cid=7144874357918423111","0265-52-2816","true","api","2025-10-31T00:09:21.908386+00:00"
"de8af2f5-f0ce-49d0-b15d-107bba21a3f8","アビーム","アビーム","日本、〒395-0152 長野県飯田市育良町１丁目２１−１０","飯田市","その他","35.5065864","137.8003734",,"https://maps.google.com/?cid=935896644753487240","0265-25-5344","true","api","2025-10-31T00:09:22.534098+00:00"
"d7bdf1ed-931b-4b12-a6a2-81927b1a4368","理容プラーナ 飯田店","りようプラーナ いいだてん","日本、〒395-0041 長野県飯田市中央通り４丁目２４ 真和ﾋﾞﾙ 1F","飯田市","その他","35.5194727","137.8219972",,"https://maps.google.com/?cid=12319594983306029679","0265-52-2223","true","api","2025-10-31T00:09:23.172822+00:00"
"efd0fa38-edfb-4a15-8ae7-d5ded59c22bb","HAIR ARC","HAIR ARC","日本、〒395-0814 長野県飯田市八幡町４８５","飯田市","その他","35.4980397","137.8348052",,"https://maps.google.com/?cid=8625697401811482542","0265-52-4848","true","api","2025-10-31T00:09:23.802398+00:00"
"d3b9be12-26fc-4878-9858-690e000cc24d","アンベリール飯田","アンベリールいいだ","日本、〒395-0042 長野県飯田市松尾町４丁目１１−８ ピースフル 2Ｆ","飯田市","その他","35.5183921","137.8213899",,"https://maps.google.com/?cid=12036236821324434615","0265-48-6955","true","api","2025-10-31T00:09:24.440158+00:00"
"2e1224da-32f4-4167-9467-b8e95edb16ba","ｗｉｂｏ","ｗｉｂｏ","日本、〒395-0806 長野県飯田市鼎上山３７７１−５","飯田市","その他","35.5052","137.8115788",,"https://maps.google.com/?cid=17721124372372179784","0265-53-3353","true","api","2025-10-31T00:09:25.084132+00:00"
"e9c88bfb-666d-44e4-b10b-1d4e37fbd0f4","LUCE Hair Room (ルーチェ・ヘアルーム)","LUCE Hair Room (ルーチェ・ヘアルーム)","日本、〒395-0015 長野県飯田市江戸町４丁目２８１ メゾンパンドール","飯田市","その他","35.5159177","137.8321101",,"https://maps.google.com/?cid=12424000115704003380","0265-23-0003","true","api","2025-10-31T00:09:25.708724+00:00"
"95a56d77-03b0-4ca7-b8df-5fa273360a43","ヘアーオブリジョイス","ヘアーオブリジョイス","日本、〒395-0045 長野県飯田市知久町１丁目９ まちカンビル 2002","飯田市","その他","35.514282","137.825369",,"https://maps.google.com/?cid=17053030167411260800","0265-53-8221","true","api","2025-10-31T00:09:26.339997+00:00"
"7070b5ad-eef9-4496-945e-0ce47802f28e","ダニエル","ダニエル","日本、〒395-0041 長野県飯田市中央通り３丁目１２","飯田市","その他","35.5179718","137.8237073",,"https://maps.google.com/?cid=5728637704475461950","0120-818-835","true","api","2025-10-31T00:09:26.970971+00:00"
"4c655926-d449-440a-a563-6e20fcd33393","スズキ美容室","スズキびようしつ","日本、〒395-0027 長野県飯田市馬場町２丁目５８３−１","飯田市","その他","35.51516","137.8293771",,"https://maps.google.com/?cid=11771805326611175552","0265-22-4573","true","api","2025-10-31T00:09:27.60847+00:00"
"198a4309-73fb-41dc-96d9-23aaaa5a6c6c","髪’きりがかり","かみ’きりがかり","日本、〒395-0002 長野県飯田市上郷飯沼３４２１−７","飯田市","その他","35.514981","137.8484796",,"https://maps.google.com/?cid=12242250683479136996","0265-49-8184","true","api","2025-10-31T00:09:28.249494+00:00"
"a82f2109-ccf1-41f3-920b-ace0e3b4e699","カットサロン チョッキン","カットサロン チョッキン","日本、〒395-0804 長野県飯田市鼎２４６１","飯田市","その他","35.5000328","137.8291705",,"https://maps.google.com/?cid=3355128842807055625","0265-22-0321","true","api","2025-10-31T00:09:28.874005+00:00"
"acd0556e-19b5-4eb9-ac47-79bd439763ab","スポーツクラブFLEX","スポーツクラブFLEX","日本、〒395-0026 長野県飯田市鼎西鼎６１８−１","飯田市","その他","35.5091452","137.8363355",,"https://maps.google.com/?cid=14278446927886088448","0265-23-8823","true","api","2025-10-31T00:09:29.745144+00:00"
"665655c7-d7ff-428c-9875-1b033cd9cf44","飯田城温泉(日帰り入浴)","いいだじょうおんせん(ひがえりにゅうよく)","日本、〒395-0034 長野県飯田市追手町２丁目６４１−１０","飯田市","その他","35.5118589","137.8330926",,"https://maps.google.com/?cid=7561082562038937032","0265-53-2581","true","api","2025-10-31T00:09:30.375865+00:00"
"297acf23-cb77-447f-b6fb-4a4ff0f859c9","カーブス 飯田","カーブス いいだ","日本、〒395-0031 長野県飯田市銀座３丁目７ 堀端ビル","飯田市","その他","35.5143982","137.8265113",,"https://maps.google.com/?cid=17809761166192004006","0265-21-2129","true","api","2025-10-31T00:09:30.992181+00:00"
"cdfa9b93-6f16-4353-870f-5994647a64d1","カーブス かなえ一色","カーブス かなえいっしょく","日本、〒395-0805 長野県飯田市鼎一色６６６","飯田市","その他","35.4994657","137.8143142",,"https://maps.google.com/?cid=17878814534677399258","0265-53-2929","true","api","2025-10-31T00:09:31.638+00:00"
"fd566406-93ec-4681-8e6b-e79a771a98e1","ナチュラルサロンｍａｕ","ナチュラルサロンｍａｕ","日本、〒395-0044 長野県飯田市本町２丁目","飯田市","その他","35.5152737","137.8249621",,"https://maps.google.com/?cid=18293282648426685355","0265-48-0878","true","api","2025-10-31T00:09:32.260065+00:00"
"c109e1ff-7e01-4267-88f0-cf363e4d9180","飯田市の整体・マッサージ・リラクゼーション/TAiSEiKAN","いいだしのせいたい・マッサージ・リラクゼーション/TAiSEiKAN","日本、〒395-0804 長野県飯田市鼎名古熊２４６１ アピタ飯田店 2F","飯田市","その他","35.5002041","137.8299694",,"https://maps.google.com/?cid=17264562025059881330","0265-23-6623","true","api","2025-10-31T00:09:32.88952+00:00"
"8e92bf2d-f2d9-471d-897a-f5b897a2d5ff","ほっ湯アップル","ほっゆアップル","日本、〒395-0823 長野県飯田市松尾明７５１３−３","飯田市","その他","35.492474","137.8556452",,"https://maps.google.com/?cid=10556183699549008883","0265-56-6767","true","api","2025-10-31T00:09:33.507383+00:00"
"a0a7db4d-ebb8-4b62-ad08-021f314ae51a","信州たかもり温泉 御大の館","しんしゅうたかもりおんせん おんたいのかん","日本、〒399-3105 長野県下伊那郡高森町牛牧８３２−１","高森町","飲食","35.54978","137.839704",,"https://maps.google.com/?cid=13941970127792238950","0265-35-8270","true","api","2025-10-31T00:09:34.128654+00:00"
"15041301-eb86-42ee-8219-5d51a6e690af","リラクゼーションサロンSnooze 〜脳眠〜","リラクゼーションサロンSnooze 〜のうねむり〜","日本、〒395-0031 長野県飯田市銀座４丁目１０−３","飯田市","商業","35.5140702","137.8263437",,"https://maps.google.com/?cid=656965643211506826","090-2332-9859","true","api","2025-10-31T00:09:34.745728+00:00"
"1a0c8ea6-59d0-4608-a827-13b347866ee1","パーソナルジムten-fit（テンフィット）","パーソナルジムten-fit（テンフィット）","日本、〒395-0051 長野県飯田市高羽町３丁目5−１１ 高羽東ビル 1階","飯田市","その他","35.5218839","137.8222666",,"https://maps.google.com/?cid=10658856092113840817","0265-49-3502","true","api","2025-10-31T00:09:35.374086+00:00"
"d27c7ebd-fef7-4598-aeee-c1b9fa39e2b2","貸切天然温泉『南天』","かしきりてんねんおんせん『なんてん』","日本、〒395-0034 長野県飯田市追手町２丁目６４１−１０","飯田市","その他","35.5117704","137.8331227",,"https://maps.google.com/?cid=10651333067131311774","0265-24-0242","true","api","2025-10-31T00:09:35.989143+00:00"
"f462b583-a0fd-4ee1-a7a9-dc9ef91df640","上郷アトラスアスレチック","かみさとアトラスアスレチック","日本、〒395-0004 長野県飯田市上郷黒田５５３０","飯田市","その他","35.5238967","137.8309397",,"https://maps.google.com/?cid=6765984184232765675","0265-24-0995","true","api","2025-10-31T00:09:36.606163+00:00"
"da1133a3-fa30-4452-9820-40110bfef9bb","フィットイージー飯田かなえ店","フィットイージーいいだかなえてん","日本、〒395-0806 長野県飯田市鼎上山３７２９−１","飯田市","その他","35.5063747","137.81006",,"https://maps.google.com/?cid=13959137221017160685","0265-48-0075","true","api","2025-10-31T00:09:37.231644+00:00"
"46665ec1-29fb-4a49-a9a9-a30970cf6907","株式会社信州のもり","かぶしきがいしゃしんしゅうのもり","日本、〒395-0803 長野県飯田市鼎下山８７６","飯田市","その他","35.5065063","137.8338859",,"https://maps.google.com/?cid=7740812587822081683","0265-49-0820","true","api","2025-10-31T00:09:37.874162+00:00"
"202529c8-d334-439a-b425-283275f6577b","岩盤salon fans","がんばんsalon fans","日本、〒395-0026 長野県飯田市鼎西鼎５８０−１０","飯田市","その他","35.5087775","137.8373994",,"https://maps.google.com/?cid=16850134083594338150","0265-54-0557","true","api","2025-10-31T00:09:38.516232+00:00"
"4c2fec84-f1ec-4906-8443-af5e52cb45ba","カーブス そよら飯田アップルロード","カーブス そよらいいだアップルロード","日本、〒395-0805 長野県飯田市鼎一色４５６ 2F そよら飯田アップルロード","飯田市","その他","35.500197","137.8160026",,"https://maps.google.com/?cid=2649766032217643329","0265-48-5248","true","api","2025-10-31T00:09:39.142507+00:00"
"b377d244-fff0-4ef9-81ec-72d41cf8d5a0","ホットヨガ＆マシンピラティス LAVA飯田店","ホットヨガ＆マシンピラティス LAVAいいだてん","日本、〒395-0804 長野県飯田市鼎名古熊2182-1 1F","飯田市","その他","35.4983315","137.8231683",,"https://maps.google.com/?cid=11218737012856567047","0120-649-766","true","api","2025-10-31T00:09:39.760772+00:00"
"a0d283f9-2c6a-43fa-8d85-d6ae03c7a5c6","飯田市勤労青少年ホーム、飯田勤労者体育センター","いいだしきんろうせいしょうねんホーム、いいだきんろうしゃたいいくセンター","日本、〒395-0823 長野県飯田市松尾明７４４３−１","飯田市","その他","35.4926592","137.8531397",,"https://maps.google.com/?cid=3783439142265043554","0265-23-5571","true","api","2025-10-31T00:09:40.647933+00:00"
"702da4b3-1aec-4dcb-ba10-71fb3f3031bc","喬木村 中央社会体育館","たかぎむら ちゅうおうしゃかいたいいくかん","日本、〒395-1107 長野県下伊那郡喬木村小川５７９７","喬木村","その他","35.5152459","137.8757183",,"https://maps.google.com/?cid=2053501427835384749","0265-33-3663","true","api","2025-10-31T00:09:41.265315+00:00"
"8dd6a974-e0ca-48b7-b367-5e8ae5a70fcb","ヨガ＆マッサージサロン Doa(ドア)","ヨガ＆マッサージサロン Doa(ドア)","日本、〒395-0045 長野県飯田市知久町３丁目49−１","飯田市","その他","35.5152105","137.8222408",,"https://maps.google.com/?cid=10328144045976866889","090-9666-9011","true","api","2025-10-31T00:09:41.905102+00:00"
"328bc3fe-e5c4-4bf5-a68f-a0e1c15400b1","MUSCLE ELEMENT GYM","MUSCLE ELEMENT GYM","日本、〒395-0041 長野県飯田市中央通り３丁目９ 1F 信州飯田焼肉研究所内","飯田市","その他","35.517871","137.8239019",,"https://maps.google.com/?cid=7505237613749847963",,"true","api","2025-10-31T00:09:42.534635+00:00"
"59f0f81d-4517-4d53-b7de-18fe864e39c7","Exercise Park","Exercise Park","中央公園(長姫) 公衆トイレ 中央公園, 長姫, 86 長姫町 飯田市 長野県 395-0028 日本","飯田市","その他","35.5155068","137.8284557",,"https://maps.google.com/?cid=1868556739962238435",,"true","api","2025-10-31T00:09:43.195749+00:00"
"181fe38f-cfff-4b12-a5aa-65e53d86a0a4","YOGA STUDIO Axis","YOGA STUDIO Axis","日本、〒395-0012 長野県飯田市大王路１丁目5−３","飯田市","その他","35.5200297","137.8302911",,"https://maps.google.com/?cid=14797887882515583150","090-3698-0048","true","api","2025-10-31T00:09:43.811538+00:00"
"4049f7e4-0548-4842-9d76-efd5231f508b","Light Up Gym(ライトアップジム)","Light Up Gym(ライトアップジム)","日本、〒395-0063 長野県飯田市羽場町１丁目10−１４","飯田市","その他","35.5174301","137.8102769",,"https://maps.google.com/?cid=13260608969347957509","090-1967-9715","true","api","2025-10-31T00:09:44.447367+00:00"
"08aff946-c203-4eb4-be69-959dd73f03e0","飯田市鼎体育館","いいだしかなえたいいくかん","日本、〒395-0801 長野県飯田市鼎中平１３３９−５","飯田市","その他","35.5050841","137.8266708",,"https://maps.google.com/?cid=12457624635743486969","0265-52-0884","true","api","2025-10-31T00:09:45.060268+00:00"
"a7c47fb0-92da-422f-83ff-d611bb2ec2d0","studio Manava","studio Manava","日本、〒395-0806 長野県飯田市鼎上山４０３６","飯田市","その他","35.5090652","137.8106299",,"https://maps.google.com/?cid=5951326042213661746",,"true","api","2025-10-31T00:09:45.680979+00:00"
"6bedfd59-6534-4e38-ab3e-54c15a019c36","APRIS GYM(アプリスジム)","APRIS GYM(アプリスジム)","日本、〒395-0805 長野県飯田市鼎一色２３７−８ B1","飯田市","その他","35.5033657","137.8144686",,"https://maps.google.com/?cid=6932836023543237667","090-3558-7769","true","api","2025-10-31T00:09:46.318794+00:00"
"456a7327-2ec6-4e95-bd3b-84bd9b889a14","ボディメイクスタジオHERO 飯田市","ボディメイクスタジオHERO いいだし","日本、〒395-0803 長野県飯田市鼎下山１２４７−１","飯田市","その他","35.5051475","137.8327661",,"https://maps.google.com/?cid=7094623568299489699","0265-54-0536","true","api","2025-10-31T00:09:46.953027+00:00"
"f62c8982-daad-4013-8d69-5794f8869b91","アロマヨガリトリート","アロマヨガリトリート","日本、〒395-0025 長野県飯田市東中央通５丁目５９ ピルエット","飯田市","その他","35.5100888","137.8380675",,"https://maps.google.com/?cid=7166420039962860790",,"true","api","2025-10-31T00:09:47.574786+00:00"
"cb1261b8-ffc5-414e-9ccd-26b8a43fe128","ホームクリーニング アピタ飯田店","ホームクリーニング アピタいいだてん","日本、〒395-0804 長野県飯田市鼎２４６１","飯田市","その他","35.4993731","137.8293362",,"https://maps.google.com/?cid=16717942736372000184","0265-52-4622","true","api","2025-10-31T00:09:48.441576+00:00"
"948b363c-314e-4a09-b7f3-278cc12ef7ff","ダスキン マル","ダスキン マル","日本、〒395-0072 長野県飯田市曙町１８６−２","飯田市","その他","35.5175237","137.8120631",,"https://maps.google.com/?cid=12244628871943505083","0120-802-443","true","api","2025-10-31T00:09:49.076584+00:00"
"dbc2d952-2260-4180-885b-1c01ffaf0f93","福沢クリーニング店","ふくさわクリーニングてん","日本、〒395-0044 長野県飯田市本町３丁目１６","飯田市","その他","35.5165666","137.8224255",,"https://maps.google.com/?cid=15768179264929609930","0265-22-2370","true","api","2025-10-31T00:09:49.718493+00:00"
"efb6bd77-9441-494c-9a95-d0117c73fe1b","ホームクリーニング 丸山町店","ホームクリーニング まるやままちてん","日本、〒395-0077 長野県飯田市丸山町１丁目３−１１","飯田市","その他","35.5219668","137.8149882",,"https://maps.google.com/?cid=787610428878973877","0265-56-9060","true","api","2025-10-31T00:09:50.349513+00:00"
"a168f629-71e9-4c78-a83f-6a72102a56ac","（有）ホームクリーニング 別府店","（ゆう）ホームクリーニング べっぷてん","日本、〒395-0003 長野県飯田市上郷別府１６５１−１","飯田市","その他","35.510273","137.846261",,"https://maps.google.com/?cid=13388158811704637413","0265-22-6449","true","api","2025-10-31T00:09:50.987579+00:00"
"960c3fe8-ea14-477e-a299-e4dd6369b283","（有）ホームクリーニング 知久町店","（ゆう）ホームクリーニング ちくまちてん","日本、〒395-0045 長野県飯田市知久町２丁目２９","飯田市","その他","35.5148947","137.8236467",,"https://maps.google.com/?cid=8645274538526924064","0265-22-1128","true","api","2025-10-31T00:09:51.638057+00:00"
"df9cb451-ea3c-4ed5-8c60-2491b7b41234","クリーニングランドリーポケット西友伊賀良店","クリーニングランドリーポケットせいゆういがりょうてん","日本、〒395-0152 長野県飯田市育良町１丁目9−８","飯田市","その他","35.5025203","137.7994515",,"https://maps.google.com/?cid=13808696002131639506","070-1291-7613","true","api","2025-10-31T00:09:52.272554+00:00"
"63b02411-0cec-478d-bf7b-12a9eab0d0d6","クリーニング ランドリーポケット西友鼎店","クリーニング ランドリーポケットせいゆうかなえてん","日本、〒395-0803 長野県飯田市鼎下山５５０","飯田市","その他","35.5066715","137.8379506",,"https://maps.google.com/?cid=15489101398368628410","070-1291-7424","true","api","2025-10-31T00:09:52.913588+00:00"
"d181211a-6e4f-443d-9d76-832a89d6b5d4","さが美 飯田店","さがみ いいだてん","日本、〒395-0804 長野県飯田市鼎名古熊２４６１ アピタ飯田店 2F","飯田市","商業","35.4998139","137.8301034",,"https://maps.google.com/?cid=11196878696145591608","0265-21-3023","true","api","2025-10-31T00:09:53.577812+00:00"
"4c90e5fb-83f8-4320-bf8e-dde83aee264d","クリーニング ランドリーポケット飯田本店","クリーニング ランドリーポケットいいだほんてん","日本、〒395-0003 長野県飯田市上郷別府３３２７−７","飯田市","その他","35.5086168","137.8423994",,"https://maps.google.com/?cid=12441524692995602249","070-1291-7337","true","api","2025-10-31T00:09:54.202243+00:00"
"538f3b5e-0f5b-4ec7-9c56-7e844a9c412b","矢澤商店","やざわしょうてん","日本、〒395-0001 長野県飯田市座光寺宮崎５７２−２","飯田市","その他","35.5393659","137.8408125",,"https://maps.google.com/?cid=14989079068947959458","0265-22-6686","true","api","2025-10-31T00:09:54.838344+00:00"
"bdc22440-325f-4068-80fa-8da32d4df34c","トーカイ 長野工場","トーカイ ながのこうじょう","日本、〒395-0823 長野県飯田市松尾明７３５７","飯田市","その他","35.494682","137.8506134",,"https://maps.google.com/?cid=11302613591630778229","0265-21-0061","true","api","2025-10-31T00:09:55.473526+00:00"
"a37c0c7a-65c5-45d1-b815-a9226db5a8c2","ホームクリーニングJAたかぎ店","ホームクリーニングJAたかぎてん","日本、〒1282 長野県下伊那郡喬木村 JP 3951100","喬木村","その他","35.5179953","137.8741257",,"https://maps.google.com/?cid=3351159706769192735","0265-33-4486","true","api","2025-10-31T00:09:56.115965+00:00"
"ebefe28a-da23-4e69-9fbb-0a315441fbb4","北原クリーニング営業所","きたはらクリーニングえいぎょうしょ","日本、〒395-0053 長野県飯田市大久保町２５５５−２","飯田市","その他","35.5134381","137.8211938",,"https://maps.google.com/?cid=5160391869496040480","0265-24-4444","true","api","2025-10-31T00:09:56.759409+00:00"
"a5d40bd0-f4f3-41b7-978d-24afc081eb1f","クリーニング木下","クリーニングきのした","日本、〒395-0054 長野県飯田市箕瀬町２丁目","飯田市","その他","35.5141253","137.8192727",,"https://maps.google.com/?cid=4201229199289796930",,"true","api","2025-10-31T00:09:57.394414+00:00"
