place_id,name,address,area,category,lat,lng,phone,google_maps_url,is_verified,created_by
ChIJy9d2neqZHGARwFeYOT6KszA,"柚木元","日本、〒395-0086 長野県飯田市東和町１丁目９−３",飯田市,飲食,35.5192646,137.8233077,0265-23-5210,https://maps.google.com/?cid=3509300534510639040,true,api
ChIJgUdApgijHGAROOJLS1ux0ks,"玉のゆ","日本、〒395-0304 長野県下伊那郡阿智村智里３９５",阿智村,飲食,35.4570662,137.7142846,0265-43-2880,https://maps.google.com/?cid=5463624303617237560,true,api
ChIJ_UE0ooiQHGARv8rHH7mUiRI,"トラットリア・アンジャーネ","日本、〒399-3107 長野県下伊那郡高森町出原１６４−２",下伊那郡,飲食,35.5690474,137.878447,0265-35-6290,https://maps.google.com/?cid=1335762287315110591,true,api
ChIJRaBBki6aHGARRmyHTLdLqlk,"幸楽苑 飯田上郷店","日本、〒395-0002 長野県飯田市上郷飯沼２２２３−１ 2223番地1",飯田市,飲食,35.5165867,137.8494365,0265-21-4310,https://maps.google.com/?cid=6461059866051439686,true,api
ChIJseDHy2qaHGAR0pxCVT-KZRI,"かじか","日本、〒395-0001 長野県飯田市座光寺３３３３−２",飯田市,飲食,35.5362236,137.8627277,0120-535-432,https://maps.google.com/?cid=1325617669948480722,true,api
ChIJubLN3q-ZHGARyaUdIeTBf9g,"とんかつ しゃぶしゃぶ ３びきのこぶた","日本、〒395-0805 長野県飯田市鼎一色４９−１",飯田市,飲食,35.5037881,137.8115806,0265-52-5355,https://maps.google.com/?cid=15600400819786982857,true,api
ChIJ-5MqfNSbHGARw7_C2vIR_CU,"ロカンディーナミヤザワ","日本、〒395-0003 長野県飯田市上郷別府１４０３−１",飯田市,飲食,35.50791,137.847436,0265-49-8195,https://maps.google.com/?cid=2737082408284372931,true,api
ChIJLxsF3QqYHGARuhmkQVWk9Zk,"陸右ヱ門","日本、〒395-0244 長野県飯田市山本６７２４−９８１",飯田市,飲食,35.4943656,137.7657288,0265-25-0037,https://maps.google.com/?cid=11093953943177533882,true,api
ChIJEWPLJEiaHGARyk3hH4r1xv0,"Cafe&Noodle あんじゅ+2","日本、〒395-0001 長野県飯田市座光寺５２５２−１",飯田市,飲食,35.5241499,137.8626214,0265-48-0876,https://maps.google.com/?cid=18286573310573628874,true,api
ChIJBd-t36-ZHGAR1EMn6iZwSx4,"海鮮居酒屋 はなの舞 飯田店","日本、〒395-0805 長野県飯田市鼎一色４６−３",飯田市,飲食,35.5039429,137.8117704,0265-23-7018,https://maps.google.com/?cid=2182961756830647252,true,api
ChIJKYM2pUuYHGAR5l0wsov85Dw,"手塚","日本、〒395-0152 長野県飯田市育良町１丁目１８−５",飯田市,飲食,35.50517809999999,137.8001607,0265-25-8982,https://maps.google.com/?cid=4387909613885873638,true,api
ChIJWey8BfaQHGARO9CVtd3j9T4,"SPAGHETTIES＆CAKES Jai faim","日本、〒399-3101 長野県下伊那郡高森町山吹８３９９−１",下伊那郡,飲食,35.5840774,137.8817334,0265-35-1501,https://maps.google.com/?cid=4536782741019414587,true,api
ChIJz_ObajyaHGAR-7FNfdntlD8,"カレーハウスCoCo壱番屋 飯田座光寺店","日本、〒395-0001 長野県飯田市座光寺３９４８−４",飯田市,飲食,35.5287048,137.8562521,0265-23-7044,https://maps.google.com/?cid=4581548239308567035,true,api
ChIJh8acxkCaHGAREXeFYH8mAQ8,"すき家 153号飯田座光寺店","日本、〒395-0001 長野県飯田市座光寺４７０５−１",飯田市,飲食,35.5316941,137.8640388,0120-498-007,https://maps.google.com/?cid=1081187714067691281,true,api
ChIJZefn84KiHGAR6_ReZ_L0o4w,"山本ほくちそば","日本、〒395-0244 長野県飯田市山本８７２−１",飯田市,飲食,35.480875,137.7621885,,https://maps.google.com/?cid=10134212908467287275,true,api
ChIJ4WBzFK2bHGARfJaGEvA7Q3s,"ツキフクヤ","日本、〒395-1101 長野県下伊那郡喬木村阿島１３５８−１",喬木村,飲食,35.5201757,137.8738595,0265-33-5015,https://maps.google.com/?cid=8882008792393750140,true,api
ChIJLwJq_yOOHGARoz6jQ6R29W4,"アドゥマン","日本、〒399-3802 長野県上伊那郡中川村片桐４０８９",中川村,飲食,35.6301578,137.9269678,080-4985-5085,https://maps.google.com/?cid=7995427161347669667,true,api
ChIJYev9xpWZHGARnbB23tguyhY,"アンプロンプテュ","日本、〒395-0044 長野県飯田市本町２丁目２９",飯田市,飲食,35.5151043,137.8246964,0265-22-0234,https://maps.google.com/?cid=1642176523110101149,true,api
ChIJwQJCC8-ZHGAR6o8V4OCyK1A,"孔府飯店","日本、〒395-0063 長野県飯田市羽場町１丁目５−１１",飯田市,飲食,35.5196514,137.8118043,0265-24-0062,https://maps.google.com/?cid=5776907625934721002,true,api
ChIJYYR0b5GZHGARfm6QvAQpygY,"旭鮨","日本、〒395-0027 長野県飯田市馬場町２丁目１００",飯田市,飲食,35.5155414,137.8295311,0265-23-7870,https://maps.google.com/?cid=489248609843310206,true,api
ChIJRQIe3r6ZHGARtpn5eCYMDv8,"文七","日本、〒395-0054 長野県飯田市箕瀬町２丁目２４７７",飯田市,飲食,35.5138803,137.8192938,0265-24-9393,https://maps.google.com/?cid=18378640488723487158,true,api
ChIJfxCsW5OZHGARfE9dMbMPFsY,"はやふね","日本、〒395-0017 長野県飯田市東新町１丁目２０",飯田市,飲食,35.5193854,137.8283211,0120-523-419,https://maps.google.com/?cid=14273613331299127164,true,api
ChIJvSjt8HaZHGARmxsgST4xpPI,"丸忠 アピタ 飯田店","日本、〒395-0804 長野県飯田市鼎名古熊２４６１",飯田市,飲食,35.4994786,137.8291266,0265-52-5557,https://maps.google.com/?cid=17484153796943682459,true,api
ChIJgfF3jcCZHGARfkZQ2Xkonao,"朝日屋","日本、〒395-0044 長野県飯田市本町４丁目１２３５−１",飯田市,飲食,35.5175581,137.819911,0265-22-3153,https://maps.google.com/?cid=12294027061593392766,true,api
ChIJp3WQWJSZHGARjxD7BBQI4pM,"炭火居酒屋のんべえ","日本、〒395-0041 長野県飯田市中央通り２丁目１",飯田市,飲食,35.516749,137.8260985,0265-53-4320,https://maps.google.com/?cid=10656088550387945615,true,api
ChIJ4zqRMZWZHGARnkXEGgWO_VI,"えん屋","日本、〒395-0086 長野県飯田市東和町１丁目３",飯田市,飲食,35.5183677,137.8246921,0265-24-4420,https://maps.google.com/?cid=5980092032792937886,true,api
ChIJix4V1ICZHGAR8U8h4oalA6I,"ほっともっと 飯田上郷店","日本、〒395-0003 長野県飯田市上郷別府３３６１−２",飯田市,飲食,35.5116424,137.8405052,0265-56-8166,https://maps.google.com/?cid=11674356657812492273,true,api
ChIJ1e2wd0yYHGAR02MepA3u_es,"焼肉大紋 伊賀良店","日本、〒395-0152 長野県飯田市育良町１丁目１０−１",飯田市,飲食,35.503354,137.8000635,0265-25-8989,https://maps.google.com/?cid=17005009510376301523,true,api
ChIJIyrbOD-aHGAR0cpXo_0syKc,"このんこぴあ","日本、〒395-0001 長野県飯田市座光寺４５９６−１",飯田市,飲食,35.5305002,137.8611837,0265-53-3909,https://maps.google.com/?cid=12089962667554884305,true,api
ChIJLVm_ZVaYHGAR0SMTia9GIIc,"丼々恋グルメ館","日本、〒395-0155 長野県飯田市三日市場１１７９",飯田市,飲食,35.490692,137.7974114,0265-25-4490,https://maps.google.com/?cid=9736860114107966417,true,api
ChIJ_wJqupWZHGARKE3ibPqpnhk,"丸中商會","日本、〒395-0043 長野県飯田市通り町２丁目２２−３",飯田市,飲食,35.5155556,137.825,0265-21-0733,https://maps.google.com/?cid=1846099790302170408,true,api
ChIJlcKyqqiiHGARyS83_eWIFXc,"沢城湖カフェ","日本、〒395-0157 長野県飯田市大瀬木２６２７−５",飯田市,飲食,35.5003031,137.759806,0265-25-8977,https://maps.google.com/?cid=8580915186401488841,true,api
ChIJOTIa4geZHGAR1F98h09lwjY,"祥吉","日本、〒395-0154 長野県飯田市下殿岡２２３−１",飯田市,飲食,35.494766,137.813049,0265-25-5552,https://maps.google.com/?cid=3945827615779872724,true,api
ChIJU5Z6Bl2YHGARlF92wfTxhVI,"北欧","日本、〒395-0157 長野県飯田市大瀬木３９２０−１１",飯田市,飲食,35.4907894,137.7854948,0265-25-7479,https://maps.google.com/?cid=5946424916532682644,true,api
ChIJ3Q3RFkiZHGARcZm8ETSWgB4,"ピノキオ桐林店","日本、〒399-2565 長野県飯田市桐林１８３２",飯田市,飲食,35.4722143,137.8239042,0265-26-6080,https://maps.google.com/?cid=2197921768536840561,true,api
ChIJlWrnF5WZHGARlE0EADaDHk8,"焼物酒房碧","日本、〒395-0041 長野県飯田市中央通り３丁目１",飯田市,飲食,35.51756,137.8247938,0265-24-9530,https://maps.google.com/?cid=5701138446249381268,true,api
ChIJGWrnR3SZHGARW6qD-rrLtq0,"手打ちとんかつ志瑞","日本、〒395-0804 長野県飯田市鼎名古熊２１３７−１",飯田市,飲食,35.49856,137.8265438,0265-53-6767,https://maps.google.com/?cid=12517416218250160731,true,api
ChIJ7cKlOLGZHGARUjG-YE-9_Og,"キッチンこいけ","日本、〒395-0806 長野県飯田市鼎上山３８００−１",飯田市,飲食,35.5067645,137.8094579,0265-24-2099,https://maps.google.com/?cid=16788501659553509714,true,api
ChIJqYvDQJWZHGARr5LPWx0tojc,"大嘉","日本、〒395-0041 長野県飯田市中央通り３丁目５１",飯田市,飲食,35.517482,137.824108,0265-22-7015,https://maps.google.com/?cid=4008816222430794415,true,api
ChIJl2im4IWaHGAR0CN6tm5QpJs,"養老乃瀧 高森店","日本、〒399-3102 長野県下伊那郡高森町吉田２１８９−１",下伊那郡,飲食,35.555649,137.887467,0265-35-1877,https://maps.google.com/?cid=11215177408497460176,true,api
ChIJq4lBVKjxHGAR1VNJ-FMDQ5U,"うしお","日本、〒396-0025 長野県伊那市荒井３４６０",伊那市,飲食,35.8398451,137.9591374,0265-72-4595,https://maps.google.com/?cid=10755443994273600469,true,api
ChIJy5EMWK76HGARmtrTg3K-2gU,"トマトの木","日本、〒396-0041 長野県伊那市西箕輪３９００−３６０",伊那市,飲食,35.8817011,137.9200773,0265-74-1801,https://maps.google.com/?cid=421858914159811226,true,api
ChIJYVZsacD1HGARfKoJtWNRK4U,"高遠そば 入野家","日本、〒396-0211 長野県伊那市高遠町西高遠１６３２",伊那市,飲食,35.8362377,138.0589584,0265-94-2018,https://maps.google.com/?cid=9595852919723895420,true,api
ChIJq_9svw7tHGARRkWPbh1pn8E,"ビアンデさくら亭 駒ヶ根店","日本、〒399-4117 長野県駒ヶ根市赤穂４９７−５２９",駒ヶ根市,飲食,35.7387593,137.9086162,0265-81-4186,https://maps.google.com/?cid=13951985745746937158,true,api
ChIJSfzMZRvwHGARCWy_rfooqc0,"中華料理 梦（もん）","日本、〒399-4511 長野県上伊那郡南箕輪村9663２",南箕輪村,飲食,35.858644,137.9273665,0265-74-5139,https://maps.google.com/?cid=14819421105961266185,true,api
ChIJO1K2HKnxHGARu46uiUDNRCs,"オステリア デイ チュック","日本、〒396-0025 長野県伊那市荒井３４９９−１",伊那市,飲食,35.839944,137.95843,0265-74-9229,https://maps.google.com/?cid=3117842519118745275,true,api
ChIJzQO05EmNHGARXEEJ3J_RZps,"ベンガルカレー アンシャンテ ＆ カナン","日本、〒399-4117 長野県駒ヶ根市赤穂小町屋１１１９２−１",駒ヶ根市,飲食,35.7258707,137.9412415,0265-83-1510,https://maps.google.com/?cid=11197868008024916316,true,api
ChIJ-d9OsRv6HGARHL6_Xb1bTRQ,"くるまやラーメン 箕輪店","日本、〒399-4601 長野県上伊那郡箕輪町中箕輪８９３０−２",箕輪町,飲食,35.909813,137.9939381,0265-79-0606,https://maps.google.com/?cid=1462926322845072924,true,api
ChIJzdmP-KjxHGAR-gAUQcuGwWM,"かんてんぱぱショップ 駅前いなっせ店","日本、〒396-0025 長野県伊那市荒井３５００−１ いなっせビル１F",伊那市,飲食,35.8396243,137.9584679,0265-77-1088,https://maps.google.com/?cid=7188174687788335354,true,api
ChIJN95yh5LxHGARqcZqTMHQ7Mc,"久良運","日本、〒399-4431 長野県伊那市西春近小出島区２９１１−１",伊那市,飲食,35.81366,137.944012,0265-76-1189,https://maps.google.com/?cid=14406118836680705705,true,api
ChIJI0zLFJPwHGARPtjqnm7f2Hg,"アジアンカフェ ロータスマイル","日本、〒399-4511 長野県上伊那郡南箕輪村５５６４−２ シーマウントキャンディ 1F",南箕輪村,飲食,35.87322770000001,137.9592884,0265-78-5572,https://maps.google.com/?cid=8707955545726441534,true,api
ChIJAQBw5zPlHGARcKdGWS-EMUM,"有報堂","日本、〒396-0041 長野県伊那市西箕輪",伊那市,飲食,35.8796325,137.9225068,,https://maps.google.com/?cid=4841796413296125808,true,api
ChIJbxk-V3rlHGARUexRsdJrQ6g,"梨麻","日本、〒396-0013 長野県伊那市下新田３０８４−１",伊那市,飲食,35.8292124,137.9535373,0265-77-2373,https://maps.google.com/?cid=12124653174473747537,true,api
ChIJk_dOpeS3HGARXSOp2vqxxPA,"鈴屋","日本、〒399-5302 長野県木曽郡南木曽町吾妻",南木曽町,飲食,35.5774112,137.5956819,0264-57-3891,https://maps.google.com/?cid=17349187355506451293,true,api
ChIJqQSl55aZHGARb5LL6CSb5K4,"カフェレスト・センジュ","日本、〒395-0033 長野県飯田市常盤町１７ イイダコアセンジュ 1F",飯田市,飲食,35.513167,137.8264708,0265-22-1010,https://maps.google.com/?cid=12602368240116273775,true,api
ChIJA8ponc-fHGARH2Hj7Z0cEwo,"ガレージ","日本、〒399-2102 長野県下伊那郡下條村陽皐７１３",下條村,飲食,35.3902872,137.7940698,0260-27-2187,https://maps.google.com/?cid=725955429563326751,true,api
ChIJRz4Gy3CSHGAR05lQzmjrTSk,"風の谷・絵本館","日本、〒399-3702 長野県上伊那郡飯島町飯島４４−１０",飯島町,飲食,35.6740713,137.9167454,0265-86-5546,https://maps.google.com/?cid=2976293764132280787,true,api
ChIJKa3kQJWZHGARt7MoMRt9Smo,"珈琲蘭峰屋","日本、〒395-0041 長野県飯田市中央３丁目",飯田市,飲食,35.5179675,137.8237373,0265-24-9855,https://maps.google.com/?cid=7659071672039289783,true,api
ChIJ4_JRtCaOHGAROut_TlYPJhQ,"ペリカン","日本、〒399-3802 長野県上伊那郡中川村片桐４００８−１",中川村,飲食,35.6294,137.9258,0265-88-2990,https://maps.google.com/?cid=1451864793232173882,true,api
ChIJF_R4K_-ZHGARnuZB9OAIJyQ,"ハーレー","日本、〒395-0001 長野県飯田市座光寺５７８−１",飯田市,飲食,35.5390834,137.8405373,0265-24-6019,https://maps.google.com/?cid=2605060671720777374,true,api
ChIJPWCz9CWaHGARWykEDf9_JVA,"自家焙煎珈琲屋カフェ・トロピコ","日本、〒395-0002 長野県飯田市上郷飯沼１７９５−７",飯田市,飲食,35.5202167,137.8489027,0265-21-5201,https://maps.google.com/?cid=5775162830584293723,true,api
ChIJiWcK2oryHGARJVkDCpKi7-8,"オヒサマの森","日本、〒399-4301 長野県上伊那郡宮田村３３７８１",宮田村,飲食,35.7649569,137.9409541,0265-96-7132,https://maps.google.com/?cid=17289216242615540005,true,api
ChIJYTVrpMqEHGARcJt4ZYMS1ec,"カフェ・ギャラリーそらくぼ","日本、〒399-3202 長野県下伊那郡豊丘村神稲１００２７",豊丘村,飲食,35.5249921,137.92269,0265-35-1173,https://maps.google.com/?cid=16705278748353141616,true,api
ChIJzxWtO6dXG2ARFPZ-amjr-JY,"デコ","日本、〒395-0701 長野県下伊那郡根羽村３０１５−１６",根羽村,飲食,35.2998242,137.6208802,0265-49-2228,https://maps.google.com/?cid=10878703733609264660,true,api
ChIJ3VlyuSaOHGARxNH_XfYtAFM,"カフェセラード","日本、〒399-3802 長野県上伊那郡中川村片桐４０００",中川村,飲食,35.6287537,137.9257796,0265-88-3312,https://maps.google.com/?cid=5980830841310269892,true,api
ChIJR_ueaBSiHGARAS12fg0jm0A,"珈琲＆食事の店やまびこ","日本、〒395-0303 長野県下伊那郡阿智村駒場４３１−１",阿智村,飲食,35.446782,137.747938,0265-43-3700,https://maps.google.com/?cid=4655353180680760577,true,api
ChIJAYTdqoryHGARPzfHsDByrYI,"親愛の里シンフォニー","日本、〒399-4301 長野県上伊那郡宮田村３３０６−２",宮田村,飲食,35.7670268,137.9415353,0265-85-5808,https://maps.google.com/?cid=9416307949351417663,true,api
ChIJTU7E-h-aHGARVnmT4G3WQuo,"アートハウス","日本、〒395-0004 長野県飯田市上郷黒田１８７７",飯田市,飲食,35.5271002,137.8432512,0265-24-5811,https://maps.google.com/?cid=16880290120745580886,true,api
ChIJp7nFuOS3HGARNyt1KEIFkwg,"こづちや","日本、〒399-5302 長野県木曽郡南木曽町吾妻２１７９−３",南木曽町,飲食,35.5783224,137.5959916,0264-57-3175,https://maps.google.com/?cid=617843355584637751,true,api
ChIJTwTZvV-OHGAR56AlqyBMobs,"ベースキャンプコーヒー","日本、〒399-3801 長野県上伊那郡中川村大草２１４５−３",中川村,飲食,35.6473466,137.9600563,090-9747-1645,https://maps.google.com/?cid=13520171259536974055,true,api
ChIJadR1WEyNHGARXxVoc1664AU,"プランタン","日本、〒399-4117 長野県駒ヶ根市赤穂小町屋１０７２８−１",駒ヶ根市,飲食,35.7259962,137.934898,0265-83-2961,https://maps.google.com/?cid=423543279798719839,true,api
ChIJM6-v2YmZHGARRsqCQdDh7EE,"ビーバー","日本、〒395-0002 長野県飯田市上郷飯沼３０４９",飯田市,飲食,35.52018899999999,137.842547,0265-24-4818,https://maps.google.com/?cid=4750419991537568326,true,api
ChIJI-bRZkR8G2ARt3lfpc4oMiM,"喫茶かみ","日本、〒399-1403 長野県飯田市上村中郷４１３−４",飯田市,飲食,35.4069956,137.9740542,0260-36-2744,https://maps.google.com/?cid=2536134408165882295,true,api
ChIJ-TqyvpaZHGARvqzB6nt4wrY,"atomic cafe","日本、〒395-0034 長野県飯田市追手町１丁目４３",飯田市,飲食,35.514225,137.8269722,0265-53-6200,https://maps.google.com/?cid=13169220733999623358,true,api
ChIJt0QF3pOZHGAR0YimBUoH8b8,"KURANO","日本、〒395-0021 長野県飯田市仲ノ町１丁目３",飯田市,飲食,35.5162915,137.8291839,0265-48-8121,https://maps.google.com/?cid=13830843945135278289,true,api
ChIJ8V_IIT-aHGARWZWHna5MlOY,"ピッピーノ","日本、〒395-0001 長野県飯田市座光寺３７２２−１",飯田市,飲食,35.5303329,137.8602272,0265-38-9087,https://maps.google.com/?cid=16614989238127531353,true,api
ChIJ06wimcGZHGARcoptsrVslqc,"カフェ狐","日本、〒395-0051 長野県飯田市大瀬木３９２７−２",飯田市,飲食,35.4911594,137.7856429,,https://maps.google.com/?cid=12075958978478967410,true,api
ChIJpVxSlseZHGARiHUDe0Y2Fwc,"Botanicaflower SCHOOL［長野飯田］","日本、〒399-2603 長野県飯田市下久堅知久平１８００−４",飯田市,飲食,35.4821708,137.8497009,080-9464-2587,https://maps.google.com/?cid=510936759069275528,true,api
ChIJgba4Q-CfHGARNBZTR9mr4VY,"cafe niwa nowa","日本、〒399-2431 長野県飯田市川路７５３６",飯田市,飲食,35.4541087,137.8143483,080-1085-4954,https://maps.google.com/?cid=6260473906714580532,true,api
ChIJ0bXKaYmaHGARr_9qXc65_5k,"タルト専門店 小恋路","日本、〒399-3103 長野県下伊那郡高森町下市田２９６４−２７",下伊那郡,飲食,35.550045,137.885924,0265-48-6453,https://maps.google.com/?cid=11096792302845886383,true,api
ChIJR8mJjPWcHGARLMiqtjK_ev0,"cafe 風の音","日本、〒399-2611 長野県飯田市上久堅１１７８",飯田市,飲食,35.4678432,137.8826008,080-5141-1932,https://maps.google.com/?cid=18265121463288383532,true,api
ChIJC7NDs-mMHGARNPZXNAK4mr4,"メルヘン","日本、〒399-4231 長野県駒ヶ根市中沢３１７３−１",駒ヶ根市,飲食,35.7253937,137.9738536,0265-83-7721,https://maps.google.com/?cid=13734492333227374132,true,api
ChIJoVu4nDmQHGARBwOAYCiMkWA,"ミルクボックス","日本、〒399-3303 長野県下伊那郡松川町元大島",下伊那郡,飲食,35.5967881,137.9067243,0265-36-5887,https://maps.google.com/?cid=6958497004309709575,true,api
ChIJC2yAne2hHGARtBkPam9LgMc,"彩り季節風 伍和","日本、〒395-0302 長野県下伊那郡阿智村伍和５５８７−４６",阿智村,飲食,35.4211824,137.7465003,0265-48-6852,https://maps.google.com/?cid=14375572952459450804,true,api
ChIJ102l5baMHGARZyrqOaH-WMU,"Minori","日本、〒399-4321 長野県駒ヶ根市東伊那５７８−４",駒ヶ根市,飲食,35.7430658,137.9844691,,https://maps.google.com/?cid=14220395791837178471,true,api
ChIJRQIkj5KPHGAR1CCzudJ9fYs,"珈琲十分","日本、〒399-3302 長野県下伊那郡松川町生田２９３９−２",下伊那郡,飲食,35.5972667,137.9437312,090-6087-8716,https://maps.google.com/?cid=10051328287372943572,true,api
ChIJv9cFg7yNHGARrf1F82L6k24,"蔵カフェ 飯島茶寮","日本、〒399-3701 長野県上伊那郡飯島町田切２３１７−１",飯島町,飲食,35.6863307,137.9462689,,https://maps.google.com/?cid=7967987468643728813,true,api
ChIJafo-2r6kHGARR7LEJB2a7hQ,"ヘブンスそのはら","日本、〒395-0304 長野県下伊那郡阿智村智里３７３１−４",阿智村,体験,35.4552058,137.6686946,0265-44-2311,https://maps.google.com/?cid=1508312375177294407,true,api
ChIJYX1P3iBcG2ARZ7yjz5aMoiM,"宝蔵寺","日本、〒399-1601 長野県下伊那郡売木村南二１３８９",売木村,体験,35.2679673,137.7085426,0260-28-2375,https://maps.google.com/?cid=2567769316911201383,true,api
ChIJG_SGvi5eG2AR0eqoGmYGeqc,"林松寺","日本、〒399-1611 長野県下伊那郡阿南町和合",阿南町,体験,35.321919,137.757761,,https://maps.google.com/?cid=12067965187096373969,true,api
ChIJwQEXQQeQHGARw2I6nO8Xqnc,"台城公園","日本、〒399-3303 長野県下伊那郡松川町元大島２０９−２",下伊那郡,体験,35.5762643,137.9164554,0265-36-3111,https://maps.google.com/?cid=8622730754439930563,true,api
ChIJoYGh0v2YHGARzQ6BRoyh-BM,"飯田運動公園","日本、〒395-0155 長野県飯田市三日市場１９８６",飯田市,体験,35.4860547,137.7985508,0265-22-4511,https://maps.google.com/?cid=1439077704795229901,true,api
ChIJBZ8Sl5GXHGAR-vr_BjxdnPo,"猿庫の泉","日本、〒395-0000 長野県飯田市上飯田",飯田市,体験,35.5324898,137.789712,070-8032-3836,https://maps.google.com/?cid=18058411118245706490,true,api
ChIJQQUi6ROHHGARJ3qE9eB4Rj0,"湯元 山塩館","日本、〒399-3501 長野県下伊那郡大鹿村鹿塩６３１",大鹿村,体験,35.5867349,138.0561401,0265-39-1010,https://maps.google.com/?cid=4415349392270457383,true,api
ChIJX28un6XyHGARmywgy0O762g,"すずらん公園","日本、〒399-4117 長野県駒ヶ根市赤穂２２６４−５",駒ヶ根市,体験,35.7356224,137.9289904,0265-83-2111,https://maps.google.com/?cid=7560342299316595867,true,api
ChIJ3zOoMb7yHGAR9tWnEF38Uyk,"北の原公園（共楽園）","日本、〒399-4117 長野県駒ヶ根市赤穂１４６１６−１",駒ヶ根市,体験,35.74719899999999,137.9387035,,https://maps.google.com/?cid=2978001255263622646,true,api
ChIJC8gXEEfFHGARZg-d8hAgDd4,"赤沢自然休養林","日本、〒399-5600 長野県木曽郡上松町小川 小川入国有林",上松町,体験,35.7277176,137.6232411,0264-52-1133,https://maps.google.com/?cid=16000480308279185254,true,api
ChIJqSsB10nFHGAR4h7yYxfffJg,"赤沢森林鉄道","日本、〒399-5607 長野県木曽郡上松町小川 小川入国有林内",上松町,体験,35.7315373,137.6246554,0264-52-1133,https://maps.google.com/?cid=10987902482431221474,true,api
ChIJ7ctBDErlHGARS1jtxPBKnMg,"みはらしの湯","日本、〒396-0041 長野県伊那市西箕輪３４８０−１",伊那市,体験,35.8826429,137.9180867,0265-76-8760,https://maps.google.com/?cid=14455511301908944971,true,api
ChIJ0588ZpSZHGARz7CQGLUKkps,"中央公園","日本、〒395-0041 長野県飯田市伝馬町１丁目４２",飯田市,体験,35.516559,137.8271315,,https://maps.google.com/?cid=11210034195396079823,true,api
ChIJkZF4v2uZHGARdSOReDdZF9Q,"松尾鈴岡公園(松尾城跡)","日本、〒395-0804 長野県飯田市鼎",飯田市,体験,35.4872967,137.8273088,,https://maps.google.com/?cid=15282781955285918581,true,api
ChIJUcgRaCL6HGARX10GXBgoSUc,"みのわ天竜公園","日本、〒399-4601 長野県上伊那郡箕輪町中箕輪",箕輪町,体験,35.9168105,137.994337,0265-79-3111,https://maps.google.com/?cid=5136680935081008479,true,api
ChIJjXYgdmbxHGARunIBKTTekJQ,"三峰川榛原河川公園","日本、〒399-4432 長野県伊那市東春近５５６",伊那市,体験,35.8256529,137.9767795,0265-78-4111,https://maps.google.com/?cid=10705300629867295418,true,api
ChIJDyxl_71YHGARHQrWCS0btig,"高遠グリーンパーク","日本、〒396-0305 長野県伊那市高遠町長藤６６３３",伊那市,体験,35.8863767,138.0984299,0265-96-2324,https://maps.google.com/?cid=2933562087530957341,true,api
ChIJK7uHLfuPHGARp0BnT9hOK0A,"嶺岳寺","日本、〒399-3302 長野県下伊那郡松川町生田４３８",下伊那郡,体験,35.590007,137.928649,0265-36-3572,https://maps.google.com/?cid=4623876133378015399,true,api
ChIJtSELeqbyHGARaSNLeegPDYw,"大宮五十鈴神社","日本、〒399-4117 長野県駒ヶ根市赤穂北割一区２８２７",駒ヶ根市,体験,35.7352917,137.926508,0265-83-0939,https://maps.google.com/?cid=10091739831148946281,true,api
ChIJA5bm9VmSHGARH3l6m-vPXd4,"千人塚公園","日本、〒399-3705 長野県上伊那郡飯島町七久保３０１７−１２４",飯島町,体験,35.669419,137.894993,0265-86-6764,https://maps.google.com/?cid=16023191660086851871,true,api
ChIJtQyZJwvtHGARhvhHQap39uc,"南信州ビール 駒ヶ岳醸造所（本坊酒造マルス駒ヶ岳蒸溜所 敷地内）","日本、〒399-4301 長野県上伊那郡宮田村新田４７５２−３１",宮田村,飲食,35.7476699,137.9013291,0265-85-5777,https://maps.google.com/?cid=16714678640155555974,true,api
ChIJS2uKzWWXHGAR8GcYFNVvqjM,"野底山森林公園","日本、〒395-0004 長野県飯田市上郷黒田３８４０",飯田市,体験,35.5401139,137.8180198,0265-22-0915,https://maps.google.com/?cid=3722911002930997232,true,api
ChIJBSXCO3p8G2ARmQQlk1ZGaxE,"上村まつり伝承館天伯","日本、〒399-1403 長野県飯田市上村上町７５３",飯田市,体験,35.3870232,137.9696851,0260-36-2005,https://maps.google.com/?cid=1255174258802623641,true,api
ChIJLwhpRoaNHGARUmDlHAUkt_Q,"飯島町歴史民俗資料館","日本、〒399-3702 長野県上伊那郡飯島町飯島２３０９−１",飯島町,体験,35.6801385,137.9251679,0265-86-4212,https://maps.google.com/?cid=17633602470370697298,true,api
ChIJDW65HheiHGAR2plOiQxYrNo,"廣拯山長岳寺","日本、〒395-0303 長野県下伊那郡阿智村駒場５６９",阿智村,体験,35.4423858,137.7473899,,https://maps.google.com/?cid=15757066007129004506,true,api
ChIJVbCJftGZHGARZCkOp5RwvJY,"仏性山阿弥陀寺","日本、〒395-0077 長野県飯田市丸山町２丁目６７２８",飯田市,体験,35.5231397,137.8083292,0265-52-1880,https://maps.google.com/?cid=10861680185070987620,true,api
ChIJLXQNAryQHGAR-F5nmR7BqRQ,"瑠璃寺","日本、〒399-3106 長野県下伊那郡高森町大島山８１２",下伊那郡,体験,35.5644339,137.8578756,0265-35-2209,https://maps.google.com/?cid=1488933488989527800,true,api
ChIJBVuLnZSZHGARHH1CQhp2ev4,"龍臥山善勝寺","日本、〒395-0016 長野県飯田市伝馬町２丁目３１",飯田市,体験,35.5185222,137.827874,0265-24-0420,https://maps.google.com/?cid=18337098687945276700,true,api
ChIJvVMF7JKZHGARP1iMUK2IhN0,"風越公園","日本、〒395-0013 長野県飯田市小伝馬町１丁目３５４１−１",飯田市,体験,35.5201326,137.8311763,0265-22-4511,https://maps.google.com/?cid=15962033257269975103,true,api
ChIJpXjm6juOHGARVaMeKFz1euU,"中川村歴史民俗資料館","日本、〒399-3802 長野県上伊那郡中川村片桐４７２５",中川村,体験,35.632681,137.935542,0265-88-3452,https://maps.google.com/?cid=16535798758003090261,true,api
ChIJ44CLbk1gG2AR0QZHJcdK5AA,"阿南町化石館","日本、〒399-1505 長野県下伊那郡阿南町富草３９０５",阿南町,体験,35.355886,137.801548,0260-22-2273,https://maps.google.com/?cid=64258513874388689,true,api
ChIJRZ91aXqaHGARBFVFL29S7y0,"高森町歴史民俗資料館 時の駅","日本、〒399-3103 長野県下伊那郡高森町下市田２２４３",下伊那郡,体験,35.55159070000001,137.8731646,0265-35-7083,https://maps.google.com/?cid=3309954888628524292,true,api
ChIJg81WAymJHGARrLS-3s9SUq4,"四徳温泉","日本、〒399-3801 長野県上伊那郡中川村大草５４２",中川村,体験,35.6528055,138.0062271,0265-88-3929,https://maps.google.com/?cid=12561193363438482604,true,api
ChIJ_US-zwejHGARlI-OV4pWiNY,"熊谷元一写真童画館","日本、〒395-0304 長野県下伊那郡阿智村智里３３１−１",阿智村,体験,35.4552733,137.7150372,0265-43-4422,https://maps.google.com/?cid=15458700873123663764,true,api
ChIJCby-UWOXHGARyz-Tlsmk2Nk,"風越山麓公園","日本、〒395-0077 長野県飯田市丸山町４丁目５５１０−８",飯田市,体験,35.5370305,137.8126926,,https://maps.google.com/?cid=15697477686921478091,true,api
ChIJi7goYpFdG2ARF4-Fbc6Xut0,"祥雲山 瑞光院","日本、〒399-1612 長野県下伊那郡阿南町新野１０９９",阿南町,体験,35.2652672,137.7503349,0260-24-2120,https://maps.google.com/?cid=15977249540906782487,true,api
ChIJoU2Hp-VhG2ARZu5nNCbLOX4,"泰阜村立学校美術館","日本、〒399-1801 長野県下伊那郡泰阜村６２２１−５",泰阜村,体験,35.3510661,137.8389616,0260-25-1030,https://maps.google.com/?cid=9095524287399849574,true,api
ChIJMSmx3WaNHGARwroFCUju6PU,"ルビーの里 エクステリアガーデン","日本、〒399-4117 長野県駒ヶ根市赤穂１４−３５３",駒ヶ根市,体験,35.7049113,137.9271722,0265-81-1582,https://maps.google.com/?cid=17719674727045642946,true,api
ChIJYzZyQfKQHGARhjJujzzoGoc,"本学神社","日本、〒399-3101 長野県下伊那郡高森町山吹２９１９",下伊那郡,体験,35.5789351,137.8737352,,https://maps.google.com/?cid=9735348891316793990,true,api
ChIJs5GzD6XyHGARYFpe6-3wKEQ,"駒ヶ根市立博物館","日本、〒399-4115 長野県駒ヶ根市上穂栄町２３−１",駒ヶ根市,体験,35.7369599,137.929805,0265-83-1135,https://maps.google.com/?cid=4911440298294270560,true,api
ChIJ345huuONHGAR8WHNdw5Xpsw,"西岸寺","日本、〒399-3704 長野県上伊那郡飯島町本郷１７２４",飯島町,体験,35.6586935,137.9352989,0265-86-3939,https://maps.google.com/?cid=14746569749522375153,true,api
ChIJyR18a0q4HGARUNHLAJCA9uA,"義縁山長延寺","日本、〒399-5302 長野県木曽郡南木曽町吾妻３０４２−１",南木曽町,体験,35.5630688,137.6267968,0264-58-2101,https://maps.google.com/?cid=16210285264743682384,true,api
ChIJg19Nea-bHGAR7mg51WhF6Cs,"喬木村歴史民俗資料館","日本、〒395-1100 長野県下伊那郡喬木村小川６６９８−２",喬木村,体験,35.5134289,137.8751144,0265-33-4508,https://maps.google.com/?cid=3163855054783998190,true,api
ChIJT9j-OyWOHGARPpc3W3Xganc,"天の中川河川公園","日本、〒399-3802 長野県上伊那郡中川村片桐４５９８−２",中川村,体験,35.6288519,137.9303371,0265-88-3001,https://maps.google.com/?cid=8604936832690919230,true,api
ChIJVwvut8R6G2ARqVPAghb6Yk0,"龍淵寺","日本、〒399-1311 長野県飯田市南信濃和田１１８８",飯田市,体験,35.321224,137.935483,0260-34-2159,https://maps.google.com/?cid=5576294263227962281,true,api
ChIJza31UneNHGARM3Uyr7E6cnU,"石上山聖徳寺","日本、〒399-3701 長野県上伊那郡飯島町田切２８７５",飯島町,体験,35.6953546,137.932252,0265-86-2245,https://maps.google.com/?cid=8462891184605525299,true,api
ChIJDwfiu5qZHGARIhIhgtaN86c,"柳田國男記念伊那民俗学研究所","日本、〒395-0034 長野県飯田市追手町２丁目６５５",飯田市,体験,35.5117153,137.8319963,0265-22-8118,https://maps.google.com/?cid=12102172576120377890,true,api
ChIJEUisY9mZHGARK1RJcmsftdA,"かざこし子どもの森公園","日本、〒395-0077 長野県飯田市丸山町４丁目５５００−１",飯田市,体験,35.5296244,137.8161507,,https://maps.google.com/?cid=15038961077013009451,true,api
ChIJAQDUz2WXHGARVnBUrK79jd0,"モーリーの森交流館 管理事務所","日本、〒395-0004 長野県飯田市上郷黒田３８４０−３０５",飯田市,体験,35.5408429,137.8173696,0265-22-0915,https://maps.google.com/?cid=15964695180755628118,true,api
ChIJYTzpmECaHGAR8XRMY6vKH3s,"恒川官衙遺跡","日本、〒395-0001 長野県飯田市座光寺３４４６−３",飯田市,体験,35.5316955,137.8628929,0265-22-4511,https://maps.google.com/?cid=8872032628397339889,true,api
ChIJVwBkqL6QHGAR4eZF4Kam4bs,"藥壺堂","日本、〒399-3106 長野県下伊那郡高森町大島山８１２−７ 瑠璃の里会館",下伊那郡,体験,35.5639847,137.8577361,0265-35-8128,https://maps.google.com/?cid=13538285190509881057,true,api
ChIJbRWkbi6fHGARcwn1n-9mTAg,"旧小笠原家書院（伊豆木陣屋）","日本、〒399-2434 長野県飯田市伊豆木３９４２",飯田市,体験,35.44611039999999,137.7948838,0265-27-4178,https://maps.google.com/?cid=597966029900286323,true,api
ChIJvdn07JWZHGARDY9gXVc7SVE,"大平宿 紙屋","日本、〒395-0045 長野県飯田市上飯田７９２９",飯田市,体験,35.5559465,137.7235889,090-7821-9288,https://maps.google.com/?cid=5857278036786843405,true,api
ChIJb2euOVOQHGAR7OMpFzAPbSM,"大石農園","日本、〒399-3304 長野県下伊那郡松川町大島２４９４",下伊那郡,体験,35.5994908,137.8886439,0265-36-2672,https://maps.google.com/?cid=2552713263010407404,true,api
ChIJl7ic-RXtHGARUxAr1seXwKI,"駒ヶ根高原家族旅行村キャンピングリゾート駒ヶ根","中割-２３-170 赤穂 駒ヶ根市 長野県 399-4117 日本",駒ヶ根市,自然,35.7304201,137.8970329,0265-83-7227,https://maps.google.com/?cid=11727540314220204115,true,api
ChIJb3s7yOGfHGARhqtvFWL9Ltw,"CAMP & CHEERS KANESHIGE (Café ＆ Taproom)","日本、〒399-2102 長野県下伊那郡下條村陽皐５０７４",下條村,自然,35.3747137,137.779897,0260-27-2158,https://maps.google.com/?cid=15865897134981098374,true,api
ChIJE8ffe7uCHGAR3ZJSb-pGq8A,"矢筈公園キャンプ場","日本、〒395-1100 長野県下伊那郡喬木村",喬木村,自然,35.4507441,137.9371405,0265-33-5127,https://maps.google.com/?cid=13883268249003659997,true,api
ChIJywKRTc1gG2ARPuIKvubBFaM,"池の島キャンプ場","日本、〒399-1611 長野県下伊那郡阿南町和合１９３３",阿南町,自然,35.3061294,137.7927662,0260-22-4055,https://maps.google.com/?cid=11751511999468200510,true,api
ChIJZbE7lEW4HGARTaZnlWVyd08,"南木曽山麓蘭キャンプ場","日本、〒399-5302 長野県木曽郡南木曽町吾妻２７９５",南木曽町,飲食,35.5716805,137.6328678,090-8594-2135,https://maps.google.com/?cid=5726171231848736333,true,api
ChIJ8dg9aW-SHGARMJuiom1bVaY,"与田切公園 キャンプ場","日本、〒399-3702 長野県上伊那郡飯島町飯島４−１",飯島町,自然,35.6713662,137.9127507,090-4750-1398,https://maps.google.com/?cid=11985586509754571568,true,api
ChIJmxUyyP19G2ARHq_AulSlGMI,"大島河原河川公園 オートキャンプ場","日本、〒399-1403 長野県飯田市上村４−１０",飯田市,自然,35.4608923,137.9990308,0260-31-0036,https://maps.google.com/?cid=13986110426128101150,true,api
ChIJeX15i8C7HGARXu9XYaaiDm0,"里山CAMPUS","日本、〒395-0401 長野県下伊那郡阿智村清内路３１２３−２６",阿智村,飲食,35.5218447,137.6623761,090-8430-2225,https://maps.google.com/?cid=7858397235289517918,true,api
ChIJYSfeu7aMHGARoLLavis4l0Y,"ふるさとの丘","日本、〒399-4321 長野県駒ヶ根市東伊那伊那耕地５７４−１",駒ヶ根市,自然,35.7441685,137.9846729,0265-83-7785,https://maps.google.com/?cid=5086596064675017376,true,api
ChIJj8x3rdaZHGARrKB3dqz2ylo,"滝の沢公園","日本、〒395-0048 長野県飯田市滝の沢 滝の沢６６８１−１",飯田市,自然,35.5253971,137.8088597,,https://maps.google.com/?cid=6542312629291425964,true,api
ChIJP5SpkYthG2ARN6sExnYWAuw,"あいパークやすおか","日本、〒399-1801 長野県下伊那郡泰阜村３３１９",泰阜村,自然,35.376247,137.8397556,0260-26-2001,https://maps.google.com/?cid=17006179842288560951,true,api
ChIJIfLWZNVdG2ARKjGuZNa7qw0,"ポレポレVillage","日本、〒399-1601 長野県下伊那郡売木村1−４６",売木村,自然,35.2773322,137.7257306,0260-28-2802,https://maps.google.com/?cid=985087472997118250,true,api
ChIJRynVqHPvHGAR2-E7acS19EI,"小黒川渓谷キャンプ場","日本、〒396-0021 長野県伊那市伊那７１１９−６７",伊那市,自然,35.831377,137.87532,0265-74-6886,https://maps.google.com/?cid=4824680956004393435,true,api
ChIJdQ5s6c-ZHGARecBHlHaqu54,"白山１号公園","日本、〒395-0077 長野県飯田市白山町３丁目東１２−５",飯田市,自然,35.5214651,137.8120769,,https://maps.google.com/?cid=11437923104908099705,true,api
ChIJXyicONuaHGAROCC29N3Q6Cg,"豊丘アイリス園","日本、〒399-3202 長野県下伊那郡豊丘村神稲２０５０",豊丘村,自然,35.544583,137.9082301,0265-35-6855,https://maps.google.com/?cid=2947835607825915960,true,api
ChIJC0BbMHWRHGARXXBUGVYsKjQ,"リフレッシュタウン まつかわの里","日本、〒399-3304 長野県下伊那郡松川町大島",下伊那郡,体験,35.6150793,137.8825997,,https://maps.google.com/?cid=3758865587297874013,true,api
ChIJX8TQ-C2QHGARf_qYK8bvCGI,"松川町運動公園","日本、〒399-3303 長野県下伊那郡松川町元大島２８９１−３",下伊那郡,自然,35.6058786,137.9122389,0265-36-2622,https://maps.google.com/?cid=7064159649944631935,true,api
ChIJHSy51aK7HGARNFSqQVBjFEU,"せいなの森キャンプ場","日本、〒395-0401 長野県下伊那郡阿智村清内路２９９１",阿智村,自然,35.5121291,137.6682418,0265-46-2525,https://maps.google.com/?cid=4977712684501455924,true,api
ChIJP0-fuxZ9G2ARWIwoQ6sL-OI,"秋葉古道 小川路峠","日本、〒399-2222 長野県飯田市千代",飯田市,自然,35.4204555,137.9457062,,https://maps.google.com/?cid=16354834876990000216,true,api
ChIJNSTStZSkHGAR2ZZmR5gyzos,"花桃の里","日本、〒395-0304 長野県下伊那郡阿智村智里",阿智村,体験,35.4438494,137.6619172,0265-48-5750,https://maps.google.com/?cid=10074045046088701657,true,api
ChIJBRzh1HGSHGARMx30kNcA9s4,"与田切公園","日本、〒399-3702 長野県上伊那郡飯島町飯島４−１",飯島町,体験,35.6710784,137.9124492,090-4750-1398,https://maps.google.com/?cid=14913108141933862195,true,api
ChIJiaQYNYFfG2ARUn-j6Qm8KZw,"むくの里 キャンプ場","日本、〒399-1611 長野県下伊那郡阿南町和合３９−２",阿南町,自然,35.3480035,137.7290506,0260-24-2977,https://maps.google.com/?cid=11252731894722428754,true,api
ChIJ5QOHLPB-G2ARxC9NPNYo0uQ,"しらびそ高原 山岳オートキャンプ場","日本、〒399-1403 長野県飯田市上村９７９−５３",飯田市,自然,35.4324841,138.0270891,050-3583-2302,https://maps.google.com/?cid=16488286086356611012,true,api
ChIJ-bB0w7OSHGARkTWV-70oRX8,"駒ヶ岳SA(下り)ドッグラン","日本、〒399-4117 長野県駒ヶ根市赤穂１５−２０４",駒ヶ根市,自然,35.7131077,137.9084581,,https://maps.google.com/?cid=9170781012644672913,true,api
ChIJSTl1TFyNHGARc3SDSjy5evY,"馬見塚公園","日本、〒399-4117 長野県駒ヶ根市赤穂福岡１４−５",駒ヶ根市,体験,35.7096202,137.9277761,,https://maps.google.com/?cid=17760711749088277619,true,api
ChIJyyAaA96MHGARWkQ1noFITtg,"丸塚公園","日本、〒399-4101 長野県駒ヶ根市下平４５１７",駒ヶ根市,体験,35.7186615,137.9672397,0265-83-8184,https://maps.google.com/?cid=15586475081918137434,true,api
ChIJk8d8DavtHGARO1JnS8vrCAA,"けやきの森公園","日本、〒399-4301 長野県上伊那郡宮田村新田区",宮田村,自然,35.745828,137.8841284,,https://maps.google.com/?cid=2511058189636155,true,api
ChIJAQBUwXntHGARXelkwPY5QOk,"宮田村総合公園 ふれあい広場","日本、〒399-4301 長野県上伊那郡宮田村新田区１９２６−９",宮田村,自然,35.7513241,137.9128886,,https://maps.google.com/?cid=16807497541299267933,true,api
ChIJ40RkLovyHGARgZICrQ2cbcc,"せせらぎ公園","日本、〒399-4301 長野県上伊那郡宮田村町",宮田村,自然,35.7643208,137.9412509,,https://maps.google.com/?cid=14370313568560255617,true,api
ChIJOaF0FvbyHGARFvdOXCVyIwQ,"ひまわり公園","日本、〒399-4301 長野県上伊那郡宮田村町７５０８−５",宮田村,自然,35.7689394,137.9477315,,https://maps.google.com/?cid=298207505124620054,true,api
ChIJ62IagFjyHGARZtpUJVuillM,"どんぐり公園","日本、〒399-4301 長野県上伊那郡宮田村中越区７６２１",宮田村,自然,35.7703806,137.949061,,https://maps.google.com/?cid=6023180064006658662,true,api
ChIJSVnNKOpbG2AR_5DQqOnXb5I,"星の森オートキャンプ場","日本、〒399-1601 長野県下伊那郡売木村２６５３−３",売木村,自然,35.2500068,137.6694664,050-3142-1518,https://maps.google.com/?cid=10551889850511954175,true,api
ChIJlcI8hDG4HGAR436JCzAIo2Q,"TAOYA木曽路","日本、〒399-5302 長野県木曽郡南木曽町吾妻２２７８",南木曽町,温泉,35.5616114,137.6175961,050-3615-3456,https://maps.google.com/?cid=7251648827441643235,true,api
ChIJg9JCXQXtHGARo1xuu9tz5zA,"駒ヶ根ユースホステル","日本、〒399-4117 長野県駒ヶ根市赤穂２５−１",駒ヶ根市,温泉,35.7375893,137.8916887,090-8328-3856,https://maps.google.com/?cid=3523912621020306595,true,api
ChIJwYDnlkQmHWAR-3Gg7m2Pvlk,"ふもと屋","日本、〒397-0301 長野県木曽郡木曽町開田高原末川２８１９",木曽町,温泉,35.9354782,137.6343536,0264-42-3012,https://maps.google.com/?cid=6466763817268310523,true,api
ChIJbfzq1QejHGARd2CRrbesM_M,"昼神グランドホテル天心","日本、〒395-0304 長野県下伊那郡阿智村智里３３１−５",阿智村,温泉,35.455347,137.714526,0265-43-3434,https://maps.google.com/?cid=17524540479919710327,true,api
ChIJxUlbe8SaHGAR5esbDA5QpOM,"Air bnb Country Side 民泊 カントリーサイド","日本、〒399-3202 長野県下伊那郡豊丘村神稲１７２５",豊丘村,温泉,35.54764830000001,137.9076174,080-3001-8994,https://maps.google.com/?cid=16403323764053109733,true,api
ChIJJXFIVQ-jHGAR_-V0mc5Ok_4,"信州昼神温泉郷 日長庵 桂月","日本、〒395-0304 長野県下伊那郡阿智村智里４２５",阿智村,温泉,35.4577778,137.7144444,0265-43-3500,https://maps.google.com/?cid=18344092356454966783,true,api
ChIJ42JcOhKjHGARu3w0CPDXpNI,"湯元ホテル阿智川","日本、〒395-0304 長野県下伊那郡阿智村智里５０３−１１５",阿智村,温泉,35.461342,137.709256,0265-43-2800,https://maps.google.com/?cid=15178494070075194555,true,api
ChIJyYALLJeZHGARZDfYTwkWDGY,"ホテルオオハシ飯田","日本、〒395-0033 長野県飯田市常盤町２８−２８ ２８番地",飯田市,温泉,35.512856,137.8276452,0265-22-5184,https://maps.google.com/?cid=7353276520839264100,true,api
ChIJBW8jDZnXHGAR7DeHKGfygJY,"御岳ゴルフ＆リゾートホテル","日本、〒397-0101 長野県木曽郡木曽町三岳８２２２",木曽町,温泉,35.838049,137.589898,0264-46-2500,https://maps.google.com/?cid=10844934427583657964,true,api
ChIJV-6XdkntHGARURZl4TueUlc,"民泊 堀内","日本、〒399-4117 長野県駒ヶ根市赤穂２０−９１１",駒ヶ根市,温泉,35.7206588,137.9047819,070-9047-5627,https://maps.google.com/?cid=6292265609411761745,true,api
ChIJ60tdmwijHGAR1RxD4w9dUxM,"石苔亭いしだ SEKITAITEI ISHIDA","日本、〒395-0304 長野県下伊那郡阿智村智里３３２−３",阿智村,温泉,35.4558029,137.7140492,0265-43-3300,https://maps.google.com/?cid=1392559032606334165,true,api
ChIJ96wyMw-jHGARbqFdeijE_2c,"癒楽の宿 清風苑","日本、〒395-0304 長野県下伊那郡阿智村智里３３８−１９",阿智村,温泉,35.4570466,137.7127574,0265-43-4141,https://maps.google.com/?cid=7493923983098487150,true,api
ChIJC00nwWq5HGAR_Wq53gVCFjQ,"滝見温泉 滝見の家","日本、〒399-5302 長野県木曽郡南木曽町吾妻4689−４４７",南木曽町,温泉,35.5659889,137.6649489,0264-58-2165,https://maps.google.com/?cid=3753259932438850301,true,api
ChIJrdBg5QijHGARfqKi7wKjSyM,"湯多利の里 伊那華","日本、〒395-0304 長野県下伊那郡阿智村智里５０３−２９４",阿智村,温泉,35.4550303,137.712893,0265-43-2611,https://maps.google.com/?cid=2543305647586452094,true,api
ChIJoxsL4qLyHGARIxRYvjxhbzA,"駒ヶ根プレモントホテル","日本、〒399-4117 長野県駒ヶ根市赤穂１５２２−３",駒ヶ根市,温泉,35.7418033,137.9300379,0265-82-8400,https://maps.google.com/?cid=3490115149754799139,true,api
ChIJG7PijzpgHGARmxqZ_Q1FY7w,"仙流荘","日本、〒396-0403 長野県伊那市長谷黒河内１８４７−２",伊那市,温泉,35.7688662,138.0921658,0265-98-2312,https://maps.google.com/?cid=13574769628216367771,true,api
ChIJlXEBgpn1HGARfO4_bfWfsfY,"高遠さくらホテル","日本、〒396-0214 長野県伊那市高遠町勝間２１７",伊那市,飲食,35.8267008,138.0653693,0265-94-2200,https://maps.google.com/?cid=17776165080656768636,true,api
ChIJ1-cHBU2YHGARcS5rK_aFBT8,"ホテルルートイン飯田","日本、〒395-0152 長野県飯田市育良町２丁目3−５",飯田市,温泉,35.5013947,137.8011302,050-1807-0923,https://maps.google.com/?cid=4541183091609906801,true,api
ChIJ_zgmw3SeHGARiuhz1i29zAo,"農家民宿ふれあい農園おおた","日本、〒399-2223 長野県飯田市千栄２１６５",飯田市,温泉,35.4175677,137.8395998,0265-59-2616,https://maps.google.com/?cid=778204840197351562,true,api
ChIJKTnbG3PtHGARzWfsvgWuWjI,"アクア・フォレスタ","日本、〒399-4117 長野県駒ヶ根市赤穂７５９−７６５",駒ヶ根市,温泉,35.744514,137.903604,0265-81-5019,https://maps.google.com/?cid=3628403789501589453,true,api
ChIJHTuLMQHxHGARazv0XISi3Zk,"ファインデイズホテル","日本、〒396-0023 長野県伊那市山寺１８７１−４",伊那市,温泉,35.8446458,137.9643361,0265-72-2277,https://maps.google.com/?cid=11087196547034921835,true,api
ChIJ2egiPyZXHGARlMGgamW6oMM,"大芝高原","日本、〒399-4511 長野県上伊那郡南箕輪村２３５８−５",南箕輪村,温泉,35.88700550000001,137.9431225,0265-76-0048,https://maps.google.com/?cid=14096471778413035924,true,api
ChIJbWvLvey3HGARr5HySlqioH4,"諸人御宿 まるや","日本、〒399-5302 長野県木曽郡南木曽町大妻籠１４７７",南木曽町,温泉,35.5639122,137.5923279,0264-57-3117,https://maps.google.com/?cid=9124471353740792239,true,api
ChIJh4C_nrOmHGAR8GxTdD1zcbE,"不動温泉 華菱","日本、〒395-0501 長野県下伊那郡阿智村浪合２５４−１",阿智村,温泉,35.3907783,137.6821128,0265-47-2321,https://maps.google.com/?cid=12786127524863372528,true,api
ChIJtXGbFpSZHGARcJm8YQMABek,"タウンホテルなかや","日本、〒395-0041 長野県飯田市中央通り１丁目２６",飯田市,温泉,35.5158248,137.8270185,0265-22-7480,https://maps.google.com/?cid=16790826800245414256,true,api
ChIJI-DOdAGfHGARqpe9-90DrzE,"下條温泉 加賀美","日本、〒399-2101 長野県下伊那郡下條村睦沢４１６５",下條村,温泉,35.4216623,137.8006114,0260-27-2888,https://maps.google.com/?cid=3580084480728995754,true,api
ChIJBSpVz3jcHGARFax32fqPJVY,"棧(かけはし)温泉旅館","日本、〒399-5601 長野県木曽郡上松町上松１３５０−３",上松町,温泉,35.8064444,137.6864147,0264-52-2276,https://maps.google.com/?cid=6207525968953191445,true,api
ChIJmbWvfO2NHGARTXPuJo15bzk,"ホテルイタリアン","日本、〒399-3702 長野県上伊那郡飯島町飯島２３０−２",飯島町,温泉,35.671152,137.93199,0265-86-5163,https://maps.google.com/?cid=4138660229727286093,true,api
ChIJ71HW-uS3HGARLpYWMBubAjA,"下嵯峨屋","日本、〒399-5302 長野県木曽郡南木曽町吾妻寺下８０５",南木曽町,温泉,35.5757014,137.5945531,0264-57-3124,https://maps.google.com/?cid=3459498004847171118,true,api
ChIJf2uAxipiG2AR2D8RWOFhQZ4,"左京の宿","日本、〒399-1801 長野県下伊那郡泰阜村左京６０５３−１",泰阜村,温泉,35.363347,137.8412211,0260-25-2010,https://maps.google.com/?cid=11403503351951867864,true,api
ChIJudHnMkaPHGARZ-p08DFlhlI,"桑原キャンプ場","日本、〒399-3801 長野県上伊那郡中川村大草７１２４−４",中川村,温泉,35.6235357,137.9907119,070-1314-8089,https://maps.google.com/?cid=5946551623151315559,true,api
ChIJt2pQu6-HHGARKcVffJfJUYY,"山村民泊あたらしや","日本、〒399-3501 長野県下伊那郡大鹿村鹿塩３１８３",大鹿村,温泉,35.6037024,138.0490091,0265-39-2682,https://maps.google.com/?cid=9678738726659802409,true,api
ChIJ2Rf67-S3HGARiKu62TFx5Tg,"松代屋旅館","日本、〒399-5302 長野県木曽郡南木曽町吾妻807ｰ1",南木曽町,温泉,35.5758604,137.5945895,0264-57-3022,https://maps.google.com/?cid=4099807494710930312,true,api
ChIJXb2mvXvtHGAR_G7vxTiNxc8,"ペンションめいぷる","日本、〒399-4301 長野県上伊那郡宮田村４８２４−７",宮田村,温泉,35.749955,137.915539,0265-85-5335,https://maps.google.com/?cid=14971527811241570044,true,api
ChIJvcYxoV2NHGARWoflON_Gdoc,"馬見塚旅館","日本、〒399-4117 長野県駒ヶ根市赤穂１４−３２６",駒ヶ根市,温泉,35.70929090000001,137.9292498,0265-83-2324,https://maps.google.com/?cid=9761207904406701914,true,api
ChIJ48P4WwftHGAReLYzYLANcCA,"早太郎温泉 こまくさの湯","日本、〒399-4117 長野県駒ヶ根市赤穂７５９−４",駒ヶ根市,温泉,35.7438775,137.8881581,0265-81-8100,https://maps.google.com/?cid=2337383257784694392,true,api
ChIJAQEalIOZHGARAPnqmNQ7J8Y,"スポーツクラブFLEX","日本、〒395-0026 長野県飯田市鼎西鼎６１８−１",飯田市,温泉,35.5091452,137.8363355,0265-23-8823,https://maps.google.com/?cid=14278446927886088448,true,api
ChIJSTAKU5RnG2ARhGFYDaw-p_k,"天龍温泉 おきよめの湯","日本、〒399-1202 長野県下伊那郡天龍村神原５７８６−１４",天龍村,温泉,35.2493251,137.7806705,0260-32-3737,https://maps.google.com/?cid=17989416145233928580,true,api
ChIJSdp2MYWZHGARyDW7o4dc7mg,"飯田城温泉(日帰り入浴)","日本、〒395-0034 長野県飯田市追手町２丁目６４１−１０",飯田市,温泉,35.5118589,137.8330926,0265-53-2581,https://maps.google.com/?cid=7561082562038937032,true,api
ChIJ3XRjFZWZHGAR0uKxpN4uK7k,"エステサロン レノーズ飯田","日本、〒395-0041 長野県飯田市中央通り３丁目53−４ ホワイトビル 1F",飯田市,温泉,35.5172891,137.8243236,0265-53-3378,https://maps.google.com/?cid=13342809854795965138,true,api
ChIJy4i6opaZHGARpstrpWv7KPc,"カーブス 飯田","日本、〒395-0031 長野県飯田市銀座３丁目７ 堀端ビル",飯田市,温泉,35.5143982,137.8265113,0265-21-2129,https://maps.google.com/?cid=17809761166192004006,true,api
ChIJq7DwP6aZHGAR2oaJ4BdPHvg,"カーブス かなえ一色","日本、〒395-0805 長野県飯田市鼎一色６６６",飯田市,温泉,35.4994657,137.8143142,0265-53-2929,https://maps.google.com/?cid=17878814534677399258,true,api
ChIJmTRbmCWaHGARkZgxnZKD9EM,"リヴィエラ","日本、〒395-0002 長野県飯田市上郷飯沼１８０９−１０",飯田市,温泉,35.5213183,137.8496258,0265-53-3315,https://maps.google.com/?cid=4896683360584308881,true,api
ChIJRxt6yLDyHGARwvKe-TFjvOk,"カーブス 駒ヶ根","日本、〒399-4112 長野県駒ヶ根市中央３−６",駒ヶ根市,温泉,35.7364897,137.9361326,0265-81-8230,https://maps.google.com/?cid=16842445772751303362,true,api
ChIJD9Q9yJWZHGARqyNKk6XL3v0,"ナチュラルサロンｍａｕ","日本、〒395-0044 長野県飯田市本町２丁目",飯田市,温泉,35.5152737,137.8249621,0265-48-0878,https://maps.google.com/?cid=18293282648426685355,true,api
ChIJRyuinkmNHGARA6hq-mpo6dU,"n-west (エヌウエスト) 駒ヶ根","日本、〒399-4104 長野県駒ヶ根市経塚１−１４",駒ヶ根市,温泉,35.7316995,137.9402135,0265-82-2708,https://maps.google.com/?cid=15413966008329349123,true,api
ChIJxyAWUqjyHGARHP43x0gsLu0,"Manu’s Healing Massage & Yoga,Komagane","日本、〒399-4117 長野県駒ヶ根市赤穂１４３９２−７２",駒ヶ根市,温泉,35.7145884,137.9584386,,https://maps.google.com/?cid=17090646327009213980,true,api
ChIJvSjt8HaZHGARcpFksrALmO8,"飯田市の整体・マッサージ・リラクゼーション/TAiSEiKAN","日本、〒395-0804 長野県飯田市鼎名古熊２４６１ アピタ飯田店 2F",飯田市,温泉,35.5002041,137.8299694,0265-23-6623,https://maps.google.com/?cid=17264562025059881330,true,api
ChIJryA1RK-ZHGARvGtuZLjhM7U,"Ｄｉｏｎｅ飯田店 美肌脱毛 フェイシャル 痩身 ブライダルエステ","日本、〒395-0805 長野県飯田市鼎一色１６２−６",飯田市,温泉,35.5004541,137.8122718,0265-48-6959,https://maps.google.com/?cid=13057027926752390076,true,api
ChIJle0hnEmNHGARtVN9UiCgf4k,"ブリッシュ ヘアデザイン","日本、〒399-4108 長野県駒ヶ根市下市場４０−１",駒ヶ根市,温泉,35.7248665,137.9394221,0265-98-0233,https://maps.google.com/?cid=9907813765921723317,true,api
ChIJk8DHF5SnHGARqwA7PToLdgs,"信州平谷温泉 ひまわりの湯","日本、〒395-0601 長野県下伊那郡平谷村２５２",平谷村,温泉,35.3247386,137.6311724,0265-48-2911,https://maps.google.com/?cid=825859926432350379,true,api
ChIJNySMig3xHGARlIxMGA5BbP0,"プライベートサロンソフィア","日本、〒396-0009 長野県伊那市日影１６０",伊那市,温泉,35.8379112,137.9815054,090-7836-9806,https://maps.google.com/?cid=18261042117873536148,true,api
ChIJA2mHxajeHGARUO5Kdejbia8,"彩里","日本、〒397-0001 長野県木曽郡木曽郡木曽町福島７０８１−１",木曽町,温泉,35.8252222,137.6803175,0264-22-3828,https://maps.google.com/?cid=12648882819893489232,true,api
ChIJSQLSLOXwHGARIGJfMUrKRyU,"ビーライン伊那店","日本、〒399-4511 長野県上伊那郡南箕輪村神子柴７２４０",南箕輪村,温泉,35.8591346,137.9713417,0265-76-5517,https://maps.google.com/?cid=2686338122754515488,true,api
ChIJXRwl8dspHWARWN8hzRMmZFo,"おんたけ高原温泉 こもれびの湯","日本、〒397-0201 長野県木曽郡王滝村田ノ原３１５９−２５",王滝村,温泉,35.8564644,137.5524797,0264-48-2111,https://maps.google.com/?cid=6513372827572363096,true,api
ChIJnb9Jqxf6HGARozlJtYWtCHo,"カーブス イオン箕輪","日本、〒399-4601 長野県上伊那郡箕輪町中箕輪９０２５ イオン箕輪店 1F",箕輪町,温泉,35.9095412,137.9925837,0265-71-2230,https://maps.google.com/?cid=8793469062224624035,true,api
ChIJFyb67ldgG2ARSgCepOL9tMY,"阿南温泉かじかの湯","日本、〒399-1505 長野県下伊那郡阿南町富草４９２３",阿南町,体験,35.3438777,137.7945443,0260-22-2000,https://maps.google.com/?cid=14318348265183903818,true,api
ChIJj00xNQajHGAReGt0HMQgK00,"湯ったりーな昼神","日本、〒395-0304 長野県下伊那郡阿智村智里３７０−１",阿智村,温泉,35.4560663,137.7154761,0265-43-4311,https://maps.google.com/?cid=5560574191582079864,true,api
ChIJR-yKGembHGAR8zNjSyUZf5I,"ほっ湯アップル","日本、〒395-0823 長野県飯田市松尾明７５１３−３",飯田市,温泉,35.492474,137.8556452,0265-56-6767,https://maps.google.com/?cid=10556183699549008883,true,api
ChIJW4waokWOHGARsPaCTf5HJ8s,"望岳荘","日本、〒399-3801 長野県上伊那郡中川村大草４４８９",中川村,飲食,35.6359956,137.9486612,0265-88-2033,https://maps.google.com/?cid=14638748271338780336,true,api
ChIJa4Gx4bbyHGAR-AGIz6azhsI,"露天こぶしの湯","日本、〒399-4117 長野県駒ヶ根市赤穂２３−１７０",駒ヶ根市,温泉,35.7306741,137.8971689,0265-83-7228,https://maps.google.com/?cid=14017088419264987640,true,api
ChIJz9pXbtB6G2ARWWE1yxRTJJM,"遠山郷 かぐらの湯","日本、〒399-1311 長野県飯田市南信濃和田４５６ 道の駅遠山郷",飯田市,温泉,35.3208299,137.9303555,0260-34-1085,https://maps.google.com/?cid=10602690771510714713,true,api
ChIJf7J7rVOXHGARZvEpqPbTe8E,"信州たかもり温泉 御大の館","日本、〒399-3105 長野県下伊那郡高森町牛牧８３２−１",下伊那郡,飲食,35.54978,137.839704,0265-35-8270,https://maps.google.com/?cid=13941970127792238950,true,api
ChIJWWX1dACfHGARyhyW1lqH-0g,"下條温泉郷 コスモスの湯","日本、〒399-2101 長野県下伊那郡下條村睦沢３４０５",下條村,温泉,35.41860339999999,137.8017464,0260-27-2600,https://maps.google.com/?cid=5258945814102154442,true,api
ChIJgwnu2sfeHGARaX00aKJaIZs,"代山温泉 せせらぎの四季","日本、〒397-0002 長野県木曽郡木曽町新開３９６８−２",木曽町,温泉,35.861149,137.6953345,0264-24-2626,https://maps.google.com/?cid=11178315403689753961,true,api
ChIJhelq35teG2ARlyaHgnbyuoA,"うるぎ温泉 こまどりの湯","日本、〒399-1601 長野県下伊那郡売木村４５−５０",売木村,温泉,35.276358,137.709634,0260-28-2334,https://maps.google.com/?cid=9275992973332915863,true,api
ChIJoYyruL3dHGARHZxoOnPHf18,"木曽駒の湯温泉 ぬくもりの宿「駒の湯」","日本、〒397-0001 長野県木曽郡木曽町福島４７−２",木曽町,飲食,35.838025,137.74248,0264-23-2288,https://maps.google.com/?cid=6881438053360507933,true,api
ChIJP6L-oJLxHGARvm6rvtL1_1M,"テルメリゾートＩＮＡ","日本、〒399-4431 長野県伊那市西春近２８７０−１",伊那市,温泉,35.812989,137.942626,0265-76-3000,https://maps.google.com/?cid=6052826709700079294,true,api
ChIJr7EtZfebHGARlwxnAAIgIZM,"宝の湯","日本、〒399-2602 長野県飯田市下久堅下虎岩２９９０",飯田市,温泉,35.4794345,137.853189,0265-29-8017,https://maps.google.com/?cid=10601790190775635095,true,api
ChIJ3Rq5aOGZHGARigRCkcUCHgk,"リラクゼーションサロンSnooze 〜脳眠〜","日本、〒395-0031 長野県飯田市銀座４丁目１０−３",飯田市,温泉,35.5140702,137.8263437,090-2332-9859,https://maps.google.com/?cid=656965643211506826,true,api
ChIJhQKqGtOZHGARsSp0iiTd65M,"パーソナルジムten-fit（テンフィット）","日本、〒395-0051 長野県飯田市高羽町３丁目5−１１ 高羽東ビル 1階",飯田市,温泉,35.5218839,137.8222666,0265-49-3502,https://maps.google.com/?cid=10658856092113840817,true,api
ChIJNXfeK0mZHGARnta7yv0i0ZM,"貸切天然温泉『南天』","日本、〒395-0034 長野県飯田市追手町２丁目６４１−１０",飯田市,温泉,35.5117704,137.8331227,0265-24-0242,https://maps.google.com/?cid=10651333067131311774,true,api
ChIJiWb_pe2ZHGAR6-gakcSa5V0,"上郷アトラスアスレチック","日本、〒395-0004 長野県飯田市上郷黒田５５３０",飯田市,温泉,35.5238967,137.8309397,0265-24-0995,https://maps.google.com/?cid=6765984184232765675,true,api
ChIJo_47GlKZHGARk-YBOgnkbGs,"株式会社信州のもり","日本、〒395-0803 長野県飯田市鼎下山８７６",飯田市,温泉,35.5065063,137.8338859,0265-49-0820,https://maps.google.com/?cid=7740812587822081683,true,api
ChIJsdyIK3SZHGAR7UupBVjRuME,"フィットイージー飯田かなえ店","日本、〒395-0806 長野県飯田市鼎上山３７２９−１",飯田市,温泉,35.50637469999999,137.81006,0265-48-0075,https://maps.google.com/?cid=13959137221017160685,true,api
ChIJq3l3Vd-ZHGARZr9XVqyz1-k,"岩盤salon fans","日本、〒395-0026 長野県飯田市鼎西鼎５８０−１０",飯田市,温泉,35.5087775,137.8373994,0265-54-0557,https://maps.google.com/?cid=16850134083594338150,true,api
ChIJTWPPlaaZHGARQZk60CrcxSQ,"カーブス そよら飯田アップルロード","日本、〒395-0805 長野県飯田市鼎一色４５６ 2F そよら飯田アップルロード",飯田市,温泉,35.500197,137.8160026,0265-48-5248,https://maps.google.com/?cid=2649766032217643329,true,api
ChIJJ7uI_VCZHGARB7XXr9_1sJs,"ホットヨガ＆マシンピラティス LAVA飯田店","日本、〒395-0804 長野県飯田市鼎名古熊2182-1 1F",飯田市,温泉,35.4983315,137.8231683,0120-649-766,https://maps.google.com/?cid=11218737012856567047,true,api
ChIJWc_2cO2ZHGARboJehDvYFrs,"AUN'S GYM長野飯田","日本、〒395-0804 長野県飯田市鼎名古熊２１６７",飯田市,温泉,35.4982213,137.8245627,070-3106-0211,https://maps.google.com/?cid=13481200284715614830,true,api
ChIJpYE1F9WZHGAR-z2Fzo87nXQ,"nail＆spa RainbowQuartz","日本、〒395-0004 長野県飯田市上郷黒田１２４２−５",飯田市,温泉,35.5247918,137.8386201,090-5336-7968,https://maps.google.com/?cid=8402937968574414331,true,api
ChIJ_aRye76bHGARhI7RK4M3qtU,"VIEXS","日本、〒395-0002 長野県飯田市上郷飯沼１５６４ テナント南",飯田市,温泉,35.5233052,137.8525816,0265-49-4079,https://maps.google.com/?cid=15396179312634859140,true,api
ChIJO-oL8JSXHGARarEqqICk3oQ,"ホテル風の山 長野 飯田市","日本、〒395-0068 長野県飯田市大休７４６２−４９",飯田市,温泉,35.52476,137.7897634,0265-23-3437,https://maps.google.com/?cid=9574270730320392554,true,api
ChIJb3WL2ZOMHGARu6BLN90C_S4,"駒ヶ根市民俗資料館","日本、〒399-4231 長野県駒ヶ根市中沢４０３６",駒ヶ根市,体験,35.7258199,137.9859359,,https://maps.google.com/?cid=3385865643991212219,true,api
ChIJ4xvefpCZHGARISs9dV3aHgQ,"柳田國男館（旧喜談書屋）","日本、〒395-0034 長野県飯田市追手町２丁目６５５−６",飯田市,体験,35.5117068,137.8320281,0265-22-8118,https://maps.google.com/?cid=296914720386788129,true,api
ChIJa463Qz6iHGARpIp-6qiogns,"後藤家資料室","日本、〒395-0303 長野県下伊那郡阿智村駒場８６４−１",阿智村,体験,35.444057,137.7425801,,https://maps.google.com/?cid=8899861257079655076,true,api
ChIJwSSMv8R6G2ARpvKWI8rKuz0,"遠山郷土館 和田城","日本、〒399-1311 長野県飯田市南信濃和田１１９２",飯田市,体験,35.3206458,137.9354645,0260-34-2355,https://maps.google.com/?cid=4448372026487796390,true,api
ChIJLeLANrveHGARfwcAWcKfcZw,"山村代官屋敷","日本、〒397-0001 長野県木曽郡木曽町福島５８０８番地１",木曽町,体験,35.8518657,137.6982016,0264-22-3003,https://maps.google.com/?cid=11272966999350708095,true,api
ChIJh4BRiPZfHGARxNKMAObBRyE,"アルプスフォトギャラリー","日本、〒396-0401 長野県伊那市長谷非持６５１−５",伊那市,体験,35.8045534,138.0825928,0265-98-3016,https://maps.google.com/?cid=2398098520193946308,true,api
ChIJJ6M1qSHeHGARqxILqDLnhHQ,"義仲館","日本、〒399-6101 長野県木曽郡木曽町日義２９０−１",木曽町,体験,35.88951369999999,137.7609243,0264-26-2035,https://maps.google.com/?cid=8396089810079126187,true,api
ChIJYaclGJf1HGARGOyCxVdzjFc,"伊那市立高遠町歴史博物館","日本、〒396-0213 長野県伊那市高遠町東高遠457番地",伊那市,体験,35.8302358,138.0640335,0265-94-4444,https://maps.google.com/?cid=6308543998852262936,true,api
ChIJOylK7kPWHGARCHKesi2BGAs,"御嶽山岳歴史文化会館","日本、〒397-0201 長野県木曽郡王滝村大又３１５２",王滝村,体験,35.8264573,137.552775,0264-48-2648,https://maps.google.com/?cid=799530967128502792,true,api
ChIJZ2R0jZTwHGARAkzDWurSMVY,"南箕輪村 郷土館","日本、〒399-4511 長野県上伊那郡南箕輪村４８０７",南箕輪村,体験,35.8743275,137.9773626,,https://maps.google.com/?cid=6210977265107553282,true,api
ChIJS58JuSb7HGARyxb-kmKqhTo,"伊那アルプス美術館","日本、〒399-4601 長野県上伊那郡箕輪町中箕輪富田１４８００−５５",箕輪町,体験,35.9124191,137.9358361,0265-70-7020,https://maps.google.com/?cid=4216963966451979979,true,api
ChIJxRkeYOO3HGAR2z-70Hih7_c,"南木曽町博物館 歴史資料館","日本、〒399-5302 長野県木曽郡南木曽町吾妻２１９０",南木曽町,体験,35.5773536,137.5953356,0264-57-3322,https://maps.google.com/?cid=17865675787072126939,true,api
ChIJ5cUhrOr1HGAR9hv3MKXs_As,"伊那市 民俗資料館 高遠なつかし館","日本、〒396-0213 長野県伊那市高遠町東高遠２０７４",伊那市,体験,35.836439,138.060935,0265-94-4044,https://maps.google.com/?cid=863825422783552502,true,api
ChIJRcL-WR36HGARvofla0jOcJI,"美空ひばり歌の里","日本、〒399-4603 長野県上伊那郡箕輪町三日町２２４３−３",箕輪町,体験,35.9101609,138.0007124,0265-79-1601,https://maps.google.com/?cid=10552160737372243902,true,api
ChIJq6KZWqLeHGARwIOnXxaitMU,"高瀬家資料館","日本、〒397-0001 長野県木曽郡木曽町福島４７８８",木曽町,体験,35.8502817,137.7015454,0264-22-2802,https://maps.google.com/?cid=14246189738257515456,true,api
ChIJ-y43LJSZHGARqi3SnByQxkk,"飯田市川本喜八郎人形美術館","日本、〒395-0044 長野県飯田市本町１丁目２",飯田市,体験,35.5149434,137.8257144,0265-23-3594,https://maps.google.com/?cid=5316094862721953194,true,api
ChIJ2ZoVgJqZHGARGp9T6POWnbI,"飯田市美術博物館","日本、〒395-0034 長野県飯田市追手町２丁目６５５−７",飯田市,体験,35.5119811,137.8305148,0265-22-8118,https://maps.google.com/?cid=12870609284413759258,true,api
ChIJpcn8TrCMHGAROwVUFXUmd-w,"駒ヶ根シルクミュージアム","日本、〒399-4321 長野県駒ヶ根市東伊那栗林４８２",駒ヶ根市,体験,35.7443603,137.989456,0265-82-8381,https://maps.google.com/?cid=17039129999490417979,true,api
ChIJu9m5BSoeHWAR9Mhvp4O-1hw,"楢川歴史民俗資料館","日本、〒399-6303 長野県塩尻市奈良井６８",その他,体験,35.9616629,137.8080261,0264-34-2654,https://maps.google.com/?cid=2078057750737176820,true,api
ChIJ2U7bjSkeHWAR_zWCyjXfbSM,"中村邸","日本、〒399-6303 長野県塩尻市大字奈良井３１１",その他,体験,35.9633603,137.8088361,0264-34-2655,https://maps.google.com/?cid=2552941985912731135,true,api
ChIJZ4KGu436HGARmQIe3tLZ6WM,"登内時計記念博物館","日本、〒396-0041 長野県伊那市西箕輪１９３８−８８",伊那市,体験,35.8951608,137.953042,0265-72-2500,https://maps.google.com/?cid=7199524979021316761,true,api
ChIJ963cdCiaHGARLlaveRJTqv8,"飯田市歴史研究所","日本、〒395-0803 長野県飯田市鼎下山５３８",飯田市,体験,35.5068009,137.8375575,0265-53-4670,https://maps.google.com/?cid=18422628564528485934,true,api
ChIJ430HokWOHGAReuUnIk3zJe8,"ハチ博物館","日本、〒399-3801 長野県上伊那郡中川村大草４４８９",中川村,体験,35.636086,137.948671,0265-88-2033,https://maps.google.com/?cid=17232447061814142330,true,api
ChIJ17qStRWiHGAR4luXYvd91XE,"満蒙開拓平和記念館","日本、〒395-0303 長野県下伊那郡阿智村駒場７１１−１０",阿智村,体験,35.4418123,137.7486075,0265-43-5580,https://maps.google.com/?cid=8202600797789707234,true,api
ChIJFz8cJtWGHGARhM7PTt_Zzzw,"大鹿村中央構造線博物館","日本、〒399-3502 長野県下伊那郡大鹿村大河原９８８",大鹿村,体験,35.556375,138.0383889,0265-39-2205,https://maps.google.com/?cid=4381960515577958020,true,api
ChIJZU3Km8OeHGARGKewOojuj9g,"天竜川総合学習館・かわらんべ","日本、〒399-2431 長野県飯田市川路７６７４",飯田市,体験,35.446336,137.816031,0265-27-6115,https://maps.google.com/?cid=15604953502729676568,true,api
ChIJRzwxY2eOHGARGkKpBNlkVUs,"アンフォルメル中川村美術館","日本、〒399-3801 長野県上伊那郡中川村大草２１２４",中川村,体験,35.6466549,137.954615,0265-88-2680,https://maps.google.com/?cid=5428355809113883162,true,api
ChIJqRqi5-aZHGARUcb7P3Bj1WQ,"信州飯田焼肉研究所","日本、〒395-0041 長野県飯田市中央通り３丁目９",飯田市,体験,35.5178881,137.8238624,0265-48-6844,https://maps.google.com/?cid=7265822907593115217,true,api
ChIJgXHViROiHGARdwv8VEjjuwc,"ショッピングタウン ピア","日本、〒395-0303 長野県下伊那郡阿智村駒場４２６",阿智村,買い物,35.447221,137.7489559,0265-43-3939,https://maps.google.com/?cid=557288878713342839,true,api
ChIJ0Spw_KHyHGAR3ffeK_Zq8_k,"ベルシャイン 駒ヶ根店","日本、〒399-4117 長野県駒ヶ根市赤穂１５６８",駒ヶ根市,買い物,35.742453,137.9263036,0265-82-2111,https://maps.google.com/?cid=18010856940315277277,true,api
ChIJw4QGuSaOHGARs3KRdj6rK2Q,"中川ショッピングセンター チャオ","日本、〒399-3802 長野県上伊那郡中川村片桐４０００",中川村,飲食,35.6287227,137.9255471,0265-88-3840,https://maps.google.com/?cid=7218051112556917427,true,api
ChIJTVX91MmSHGARm9Dp12N-uyw,"くらすわの森","日本、〒399-4117 長野県駒ヶ根市赤穂１６４１０",駒ヶ根市,飲食,35.7057969,137.9026344,0265-95-3995,https://maps.google.com/?cid=3223308925603008667,true,api
ChIJZeEajabwHGARz3KTPMRIhOA,"ニシザワ 箕輪ショッピングタウン","日本、〒399-4603 長野県上伊那郡箕輪町三日町９３３−１",箕輪町,買い物,35.8917831,137.9884265,0265-98-8111,https://maps.google.com/?cid=16178135769088750287,true,api
ChIJIRa2N76ZHGARAoMUrMsKrpg,"飯田市役所","日本、〒395-8501 長野県飯田市大久保町２５３４",飯田市,買い物,35.5148057,137.8218293,0265-22-4511,https://maps.google.com/?cid=11001742809594364674,true,api
ChIJlbnt8HaZHGARj3MHC4PAYvE,"アピタ飯田店","日本、〒395-0804 長野県飯田市鼎名古熊2461番地",飯田市,飲食,35.5000686,137.8297389,0570-009-374,https://maps.google.com/?cid=17393676379916563343,true,api
ChIJ5wsHUhLxHGARgRgf1JaHN7w,"ベルシャイン 伊那店","日本、〒396-0009 長野県伊那市日影４３５−１",伊那市,飲食,35.8375272,137.9735022,0265-76-2111,https://maps.google.com/?cid=13562457884723189889,true,api
ChIJl0jOhXOQHGARpWk3jy5mg6A,"MEGAドン・キホーテUNY 高森店","日本、〒399-3101 長野県下伊那郡高森町山吹４５１５",下伊那郡,買い物,35.5730742,137.898934,0570-055-911,https://maps.google.com/?cid=11566200618174867877,true,api
ChIJS7J-JQCZHGARVDdNSm80Lmw,"そよら飯田アップルロード","日本、〒395-0805 長野県飯田市鼎一色４５６",飯田市,買い物,35.500744,137.8167463,,https://maps.google.com/?cid=7795225657617495892,true,api
ChIJEf28bmGaHGAR6V7Af6NjtHs,"高森パース","日本、〒399-3103 長野県下伊那郡高森町下市田１８１８ 高森ＳＣ 内",下伊那郡,買い物,35.5455355,137.8789168,0265-35-1919,https://maps.google.com/?cid=8913859116347186921,true,api
ChIJl8o5JiKQHGARipH4OPOiUes,"松川町あらい商店街","日本、〒399-3303 長野県下伊那郡松川町元大島",下伊那郡,買い物,35.5957426,137.9166759,,https://maps.google.com/?cid=16956513237543195018,true,api
ChIJG11vGiNhG2ARC5Tkzr6qJhI,"ショッピングランド ナピカ","日本、〒399-1504 長野県下伊那郡阿南町西條７１０",阿南町,飲食,35.3294157,137.8112433,0260-31-1212,https://maps.google.com/?cid=1307920478289302539,true,api
ChIJ6a1vIgCTHGARVBb7vQiGpmE,"くらすわの森 フォレストリング","日本、〒399-4117 長野県駒ヶ根市赤穂１６４１０",駒ヶ根市,買い物,35.705678,137.901961,0265-95-3995,https://maps.google.com/?cid=7036458839918188116,true,api
ChIJ8QHNAa3xHGAR1O2OgHjxI7A,"カード・ボードゲームカフェ レイクス","日本、〒399-4431 長野県伊那市西春近８５３０−３",伊那市,買い物,35.7752778,137.9434697,080-6938-4498,https://maps.google.com/?cid=12692253674715409876,true,api
ChIJV4C0UKPcHGARLnPgVMjnC-8,"（株）ナガオ","日本、〒399-5603 長野県木曽郡上松町駅前通り２丁目４０",上松町,買い物,35.7825887,137.6941584,0264-52-2088,https://maps.google.com/?cid=17225116047412065070,true,api
ChIJVVWBDLvxHGAR6AKVSjoZEKA,"未阿莉会館","5236, Plaza Crazy-Love, 5236 西町 伊那市 長野県 396-0026 日本",伊那市,買い物,35.8303175,137.9493635,,https://maps.google.com/?cid=11533746383845917416,true,api
ChIJJT1TpOTxHGARoRZX3tOe3wQ,"通り町商店街","日本、〒396-0025 長野県伊那市荒井",伊那市,買い物,35.8399021,137.9600276,,https://maps.google.com/?cid=351173928763725473,true,api
ChIJzbQnFWHxHGARJ7osHxLhwNc,"伊那福島ショッピングパーク","日本、〒396-0001 長野県伊那市福島",伊那市,買い物,35.873086,137.9863001,,https://maps.google.com/?cid=15546673381631638055,true,api
ChIJWXMK7KbwHGART94w5eiy_Ks,"ベルシャイン 箕輪店","日本、〒399-4603 長野県上伊那郡箕輪町三日町９３３−１",箕輪町,飲食,35.8920121,137.9876895,0265-98-8111,https://maps.google.com/?cid=12392976987964104271,true,api
ChIJ143flpX7HGARVpvLJi1q1xQ,"信州自然村ファーム","日本、〒399-4511 長野県上伊那郡南箕輪村12",南箕輪村,買い物,35.89488559999999,137.9840624,,https://maps.google.com/?cid=1501785742908300118,true,api
ChIJM5skkrb7HGARhS6OlyWeJtE,"ベルシャイン 伊北店","日本、〒399-4601 長野県上伊那郡箕輪町中箕輪３０１１−１",箕輪町,飲食,35.9323449,137.9779654,0265-79-2211,https://maps.google.com/?cid=15070907087335599749,true,api
ChIJRYKtyzWYHGARxsxN17OvMBA,"豊作ネット","日本、〒395-0151 長野県飯田市北方１５７６−５",飯田市,買い物,35.5098537,137.7993436,0265-25-8631,https://maps.google.com/?cid=1166625490435165382,true,api
ChIJy6TJj72aHGARLknaChtGI8s,"浅井商店","日本、〒399-3201 長野県下伊那郡豊丘村河野２４５−１",豊丘村,買い物,35.5580503,137.902586,0265-35-2028,https://maps.google.com/?cid=14637620295844383022,true,api
ChIJq4QV70iaHGAR_3JUbrgCgao,"ヨコハマタイヤサービス 甲信飯田店","日本、〒395-0821 長野県飯田市松尾新井６８２４",飯田市,買い物,35.4983622,137.8587292,0265-48-0890,https://maps.google.com/?cid=12286104249591689983,true,api
ChIJS903Sv-aHGARKwQeHzRBAaE,"丸宮産業","日本、〒399-3202 長野県下伊那郡豊丘村神稲９２９０−１",豊丘村,買い物,35.529997,137.88337,0265-35-7388,https://maps.google.com/?cid=11601625807199274027,true,api
ChIJUVaLH5SRHGAR2BBvdPrZonY,"エコロユニオン","日本、〒399-3301 長野県下伊那郡松川町上片桐１０１８−１６",下伊那郡,買い物,35.625268,137.897153,0265-37-4122,https://maps.google.com/?cid=8548634712421109976,true,api
ChIJfVXAq-qZHGARMdRllkX7RiU,"金券ショップ アシスト","日本、〒395-0041 長野県飯田市中央通り４丁目５１",飯田市,買い物,35.518047,137.822905,0265-48-0444,https://maps.google.com/?cid=2686110504067650609,true,api
ChIJmQTfAOuZHGARQP0jg7l5GbQ,"アシスト","日本、〒395-0083 長野県飯田市錦町２丁目１",飯田市,買い物,35.5211678,137.8256538,0265-23-8081,https://maps.google.com/?cid=12977537638920879424,true,api
ChIJv6stJyKQHGARaRd4l2RzrP4,"マルエイ","日本、〒399-3303 長野県下伊那郡松川町元大島１４７５",下伊那郡,買い物,35.5955533,137.916738,0265-36-2218,https://maps.google.com/?cid=18351169457503082345,true,api
ChIJQfsL4nSZHGAROTdw57D386c,"select shop HOPE","日本、〒395-0002 長野県飯田市上郷飯沼１６８３−１",飯田市,買い物,35.5240228,137.8501181,0265-24-3690,https://maps.google.com/?cid=12102288962843850553,true,api
ChIJ-8afPqeZHGAREv-mW35y94c,"平安堂 飯田店","日本、〒395-0804 長野県飯田市鼎名古熊６６０−１",飯田市,買い物,35.4986674,137.8170346,0265-24-4545,https://maps.google.com/?cid=9797425401396920082,true,api
ChIJVRTb-sGZHGARn8D7kjxayBI,"セブン-イレブン 飯田白山町店","日本、〒395-0076 長野県飯田市白山町１丁目６４５６−１",飯田市,飲食,35.5184186,137.8177403,0265-52-2877,https://maps.google.com/?cid=1353430904235344031,true,api
ChIJK19JKpWZHGARS9DMbrWakCs,"呉服のべにや","日本、〒395-0085 長野県飯田市吾妻町２７",飯田市,買い物,35.5194583,137.8264763,0265-22-1349,https://maps.google.com/?cid=3139179044315910219,true,api
ChIJT8LCg528WjUR5sdjM0Spcfk,"AOKI 飯田インター店","日本、〒395-0805 長野県飯田市鼎一色１４０−２",飯田市,買い物,35.5014197,137.8105568,0265-53-4288,https://maps.google.com/?cid=17974333698197407718,true,api
ChIJ07DhIUGaHGARD2mjJPSwYKs,"ローソン 飯田座光寺店","日本、〒395-0001 長野県飯田市座光寺４７３７−１",飯田市,飲食,35.53256289999999,137.8652332,0265-23-5220,https://maps.google.com/?cid=12349064740883097871,true,api
ChIJb14KeJaZHGARV3fvdfMsanM,"澤村屋呉服店","日本、〒395-0045 長野県飯田市知久町１丁目２２",飯田市,買い物,35.5142279,137.8248944,0265-24-5100,https://maps.google.com/?cid=8316509086060345175,true,api
ChIJ-fl75XOZHGARCem2D_-_LFI,"ラプリ","日本、〒395-0804 長野県飯田市鼎名古熊１９９７−３",飯田市,買い物,35.4965434,137.8273599,0265-56-8783,https://maps.google.com/?cid=5921318712286570761,true,api
ChIJ1UIr8oOaHGARJYXLSxVfJn0,"スポーツカムイ 高森店","日本、〒399-3102 長野県下伊那郡高森町吉田２３２５−１",下伊那郡,買い物,35.5597188,137.8881376,0265-35-3935,https://maps.google.com/?cid=9017999848926577957,true,api
ChIJdVm3hJaZHGARmLR3zCTX-XQ,"ツノダ銀座本店","日本、〒395-0031 長野県飯田市銀座４丁目１",飯田市,買い物,35.5142767,137.8260963,0265-23-1321,https://maps.google.com/?cid=8429004730649785496,true,api
ChIJjS20PD-aHGARh1-TBS8wbdE,"シューマート 飯田座光寺店","日本、〒395-0001 長野県飯田市座光寺4597ｰ1",飯田市,買い物,35.5303872,137.8606803,0265-24-7100,https://maps.google.com/?cid=15090770904903540615,true,api
ChIJrVbNYhOZHGARJ2bGZAiCHzw,"アールビーズ（ＲＢ’ｓ）","日本、〒399-2561 長野県飯田市駄科１９１７−２",飯田市,買い物,35.4855756,137.8212141,0265-26-1353,https://maps.google.com/?cid=4332324339115779623,true,api
ChIJS2sTp02YHGARhtSU_RqKd7I,"NTPトヨタ信州 飯田インター店","日本、〒395-0152 長野県飯田市育良町２丁目２−１",飯田市,買い物,35.5009226,137.8007253,0265-25-8200,https://maps.google.com/?cid=12859899109507912838,true,api
ChIJn8EVza-ZHGARbNSEA66_Dr0,"ローソン 飯田鼎一色店","日本、〒395-0805 長野県飯田市鼎一色８８",飯田市,飲食,35.5029606,137.810699,0265-52-5068,https://maps.google.com/?cid=13623036676946580588,true,api
ChIJOaaHU5WZHGARaDghkEgkyes,"高田薬局","日本、〒395-0041 長野県飯田市中央通り３丁目44−４４ 3",飯田市,買い物,35.5178729,137.8233342,0265-56-8550,https://maps.google.com/?cid=16990150963306248296,true,api
ChIJMe3CgVqZHGARdEYdQpNnP2E,"キラヤ 竜丘店","日本、〒399-2561 長野県飯田市駄科５８５−２",飯田市,飲食,35.477941,137.835075,0265-26-8000,https://maps.google.com/?cid=7007433427378849396,true,api
ChIJS4bl9Z2ZHGARtCeRG3d1An0,"赤門や","日本、〒395-0806 長野県飯田市鼎上山１４５３−５",飯田市,飲食,35.5024067,137.8289357,0120-787-688,https://maps.google.com/?cid=9007891359118469044,true,api
ChIJ3cq655aZHGAROp5zvGC_lkA,"グレース","日本、〒395-0031 長野県飯田市銀座３丁目７ 堀端ビル 1階",飯田市,買い物,35.5146646,137.8266564,0265-49-3955,https://maps.google.com/?cid=4654117687133445690,true,api
ChIJOxgm6l2YHGARbmui8VV6sJg,"相互車体 有限会社","日本、〒395-0156 長野県飯田市中村７５",飯田市,買い物,35.4889248,137.7848101,0265-25-5151,https://maps.google.com/?cid=11002428399210883950,true,api
ChIJEa9ifNWbHGARo4ItuVcl2G8,"Honda Cars 松本東 飯田橋店","日本、〒395-0817 長野県飯田市鼎東鼎５０−１",飯田市,買い物,35.5066114,137.8429999,0265-52-5010,https://maps.google.com/?cid=8059232591878652579,true,api
ChIJSYeBH8CZHGAR0KnZlPObYPs,"丸山食品","日本、〒395-0041 長野県飯田市中央通り４丁目３１",飯田市,飲食,35.518974,137.822754,0265-22-1315,https://maps.google.com/?cid=18113649171760785872,true,api
ChIJo7OZHmOZHGARQoGemvBaSnA,"御菓子司 松寿堂","日本、〒395-0814 長野県飯田市八幡町２１４９−７",飯田市,飲食,35.4967711,137.8400126,0265-22-1930,https://maps.google.com/?cid=8091379669957247298,true,api
ChIJF0ctXSyaHGARi0gfAA1mPeM,"ファッションセンターしまむら 飯田店（長野県）","日本、〒395-0805 長野県飯田市鼎一色１６３",飯田市,飲食,35.5002947,137.8125996,0265-49-3062,https://maps.google.com/?cid=16374356026211649675,true,api
ChIJ8yN4gRSiHGARQ-ngsU6M_Ao,"春木屋本店 栄松庵","日本、〒395-0303 長野県下伊那郡阿智村駒場２４３−１",阿智村,飲食,35.44795810000001,137.748768,0265-43-2878,https://maps.google.com/?cid=791661904130009411,true,api
ChIJ41Vo9XeZHGARKgBzHOaBpD0,"三菱ふそうトラック・バス(株)飯田支店","日本、〒395-0803 長野県飯田市鼎１４１１",飯田市,買い物,35.50298050000001,137.832823,0265-23-1133,https://maps.google.com/?cid=4441817957813911594,true,api
ChIJzdPckW-ZHGARB8sfMoLnaOw,"松月","日本、〒395-0812 長野県飯田市松尾７４１−１",飯田市,飲食,35.493236,137.832186,0265-22-3421,https://maps.google.com/?cid=17035120136901610247,true,api
ChIJw5U8dhSiHGARgO-_7mIdsm4,"キラヤ ピア 店","日本、〒395-0303 長野県下伊那郡阿智村駒場４２６",阿智村,飲食,35.44722110000001,137.7489538,0265-43-2028,https://maps.google.com/?cid=7976470200776126336,true,api
ChIJ0wICMXqZHGAR_o7lGJR8JII,"やまなみ薬局","日本、〒395-0804 長野県飯田市鼎名古熊２６３９−８",飯田市,買い物,35.499683,137.834863,0265-23-0051,https://maps.google.com/?cid=9377757299606916862,true,api
ChIJkdjt8HaZHGARLQ8icBrWvwg,"夢屋書店 アピタ飯田店","日本、〒395-0804 長野県飯田市鼎名古熊2461番地",飯田市,買い物,35.5000683,137.8297478,0570-009-374,https://maps.google.com/?cid=630457881893932845,true,api
ChIJVSo7pSSaHGAR6DkHVRN2I00,"リサイクルショップサーティーズ","日本、〒395-0002 長野県飯田市上郷飯沼１５２２−１",飯田市,買い物,35.5252192,137.8518956,0265-53-8420,https://maps.google.com/?cid=5558416190508317160,true,api
ChIJCZTutKCZHGARH4fSnabXdv8,"眼鏡市場 飯田アップルロード店","日本、〒395-0804 長野県飯田市鼎名古熊５７７−４",飯田市,買い物,35.4986975,137.8181344,0265-56-4338,https://maps.google.com/?cid=18408137637535844127,true,api
ChIJ58u3D3SZHGARARChNdiNoxo,"アベニュー飯田店","日本、〒395-0804 長野県飯田市鼎名古熊２０２８−１",飯田市,買い物,35.4976537,137.8271732,0265-52-3381,https://maps.google.com/?cid=1919533825942163457,true,api
ChIJk-fDt8-ZHGARQepZ3S1502I,"ローソン 飯田丸山町店","日本、〒395-0077 長野県飯田市丸山町２丁目１−１",飯田市,飲食,35.5209057,137.8113022,0265-23-7015,https://maps.google.com/?cid=7121168673697032769,true,api
ChIJW1Hf4KaZHGARiRqBB0LN2cY,"アップル 飯田バイパス店","日本、〒395-0804 長野県飯田市鼎名古熊５８７−１",飯田市,買い物,35.4996295,137.8166326,0265-52-4040,https://maps.google.com/?cid=14328709372933380745,true,api
ChIJzQ2ofyOaHGAR_o0xyzeBWrw,"平安フラワー","日本、〒395-0808 長野県飯田市鼎上茶屋３３２０−７",飯田市,買い物,35.513054,137.8134954,0120-783-489,https://maps.google.com/?cid=13572302503666617854,true,api
ChIJuwrW8UiaHGARZ7w8RI827Hk,"長豊建設","日本、〒395-0001 長野県飯田市座光寺５５５８−１",飯田市,買い物,35.52556939999999,137.8655752,0265-52-1616,https://maps.google.com/?cid=8785456962046049383,true,api
ChIJTbS-laaZHGARMVPvYKSpv2w,"Can★Do そよら飯田アップルロード店","日本、〒395-0805 長野県飯田市鼎一色４５６ そよら飯田アップルロード店 ２階",飯田市,買い物,35.5011178,137.8167108,0265-56-0023,https://maps.google.com/?cid=7836168400113980209,true,api
ChIJPyXUAMyZHGARhcgNj8EkTVQ,"はばのサンピヨ薬局","日本、〒395-0063 長野県飯田市羽場町１丁目１９−１０",飯田市,買い物,35.5160706,137.8078813,0265-48-0402,https://maps.google.com/?cid=6074551886140000389,true,api
ChIJ--AICcqZHGAReIjadi6pgac,"花はん","日本、〒395-0807 長野県飯田市鼎切石４３５３−２",飯田市,買い物,35.5113794,137.8073547,0265-24-1187,https://maps.google.com/?cid=12070114493357262968,true,api
ChIJJbzW156ZHGAR_DKkqMqHZ40,"かなえひまわり薬局","日本、〒395-0801 長野県飯田市鼎中平１８８４−１",飯田市,買い物,35.5049595,137.8254568,0265-56-8177,https://maps.google.com/?cid=10189261986431513340,true,api
ChIJa0vs8HaZHGARJrczCfwO4UY,"サーティワンアイスクリーム アピタ飯田店","日本、〒395-0804 長野県飯田市鼎名古熊２４６１",飯田市,飲食,35.499795,137.8297243,0265-23-3931,https://maps.google.com/?cid=5107379928063784742,true,api
ChIJQxd5_JeZHGAR-bETgUnIUcg,"（株）たちばな","日本、〒395-0801 長野県飯田市鼎２３９３",飯田市,買い物,35.509409,137.823266,0265-53-8888,https://maps.google.com/?cid=14434538498722869753,true,api
ChIJTS6C_ZeZHGARK5ozw_HYp_E,"パピーハウス","日本、〒395-0801 長野県飯田市鼎中平中平２３９２−７",飯田市,買い物,35.509295,137.822997,0265-53-8887,https://maps.google.com/?cid=17413125017124969003,true,api
ChIJU6karEWZHGARTjjxbuvIcpo,"Honda Cars 松本東 竜丘店","日本、〒399-2561 長野県飯田市駄科１３１０−１",飯田市,買い物,35.4777673,137.8301429,0265-26-7250,https://maps.google.com/?cid=11129178542690089038,true,api
ChIJb-FLugqZHGARW60nJc1gYrw,"有機無低農薬 直売所 テスク","日本、〒395-0804 長野県飯田市鼎２１８９−１",飯田市,飲食,35.4987574,137.8222174,0265-22-2388,https://maps.google.com/?cid=13574518661056015707,true,api
ChIJXYjZ63CZHGARQSNAZFOa3eI,"ドラッグストア マツモトキヨシ かなえ店","日本、〒395-0804 長野県飯田市鼎名古熊２０８１−１",飯田市,買い物,35.4975155,137.8312312,0265-56-8670,https://maps.google.com/?cid=16347391905379656513,true,api
ChIJl6MB1JaZHGARNxErqCaKDsE,"春月売店","日本、〒395-0033 長野県飯田市常盤町４０",飯田市,飲食,35.513342,137.827565,0265-22-5454,https://maps.google.com/?cid=13911208197628825911,true,api
ChIJX39NWq6ZHGARnVsjAFli1t8,"アメリカンドラッグ 飯田インター店","日本、〒395-0805 長野県飯田市鼎一色140番地1",飯田市,買い物,35.5013837,137.8099751,0265-21-7520,https://maps.google.com/?cid=16129187249867938717,true,api
ChIJvSjt8HaZHGARMQB9Rd_r8Fs,"カネ美食品 アピタ飯田店","日本、〒395-0804 長野県飯田市鼎名古熊２４６１",飯田市,飲食,35.5001389,137.8300705,0265-52-4600,https://maps.google.com/?cid=6625054396038053937,true,api
ChIJxzQ87WSQHGARsY8KBnrqnNs,"泰山神社","日本、〒399-3101 長野県下伊那郡高森町山吹１０４８",下伊那郡,その他,35.5745861,137.888451,,https://maps.google.com/?cid=15824781000481345457,true,api
ChIJ2wmDhgaiHGAR1pjOFXQsjUs,"田中産業","日本、〒395-0301 長野県下伊那郡阿智村春日中関３０２３−１０",阿智村,その他,35.442905,137.759265,0265-43-3086,https://maps.google.com/?cid=5444056401654487254,true,api
ChIJh0os5wabHGARFnRfBg5iAZM,"日本屋","日本、〒395-1101 長野県下伊那郡喬木村阿島３３０４",喬木村,その他,35.52064,137.885054,0265-33-2046,https://maps.google.com/?cid=10592855610928100374,true,api
ChIJTakiLP6YHGARiAqQtuJCjjk,"（有）長谷部住設","日本、〒395-0155 長野県飯田市三日市場９２５−２",飯田市,その他,35.488689,137.802834,0265-25-8848,https://maps.google.com/?cid=4147325848347740808,true,api
ChIJ12rNoveYHGAR7byueMZet9g,"（有）エヌケイモールド","日本、〒395-0156 長野県飯田市中村１２４６−５",飯田市,その他,35.4848979,137.7920262,0265-25-6951,https://maps.google.com/?cid=15616054439451737325,true,api
ChIJAVpLOqWaHGAR7km8wHxczj8,"シロタ","日本、〒399-3201 長野県下伊那郡豊丘村河野１６８５",豊丘村,その他,35.5649792,137.9103027,0265-35-6177,https://maps.google.com/?cid=4597713960471120366,true,api
ChIJaQLtEoKiHGARekmBAcpHLEk,"（有）塗膜センター 飯田","日本、〒395-0244 長野県飯田市山本１１６２",飯田市,その他,35.479703,137.763049,0265-25-2191,https://maps.google.com/?cid=5272668196678224250,true,api
ChIJvaB00XyaHGARwAqYLXLFqa4,"アットホーム","日本、〒399-3103 長野県下伊那郡高森町下市田２１８６−５１",下伊那郡,その他,35.551419,137.879343,0265-35-9539,https://maps.google.com/?cid=12585807727845444288,true,api
ChIJS67wbSWaHGARKF2jJlR0xag,"奥村商事（資） 飯田営業所","日本、〒395-0002 長野県飯田市上郷飯沼１５９７−４",飯田市,その他,35.5216673,137.8507737,0265-53-3950,https://maps.google.com/?cid=12161254273558207784,true,api
ChIJ56qqHmyQHGAR6owzBllGuT4,"白髭神社","日本、〒399-3101 長野県下伊那郡高森町山吹５０５３",下伊那郡,その他,35.5804833,137.8973817,,https://maps.google.com/?cid=4519721049213078762,true,api
ChIJh3zPlaaZHGARIEjOB2gIbCU,"美容室エレガンス","日本、〒395-0805 長野県飯田市鼎一色2F そよらイオン飯田アップルロード店",飯田市,その他,35.5011332,137.8167066,0265-53-8885,https://maps.google.com/?cid=2696539519788664864,true,api
ChIJQ2ItO8CZHGARMIkJk8BEyY8,"レゴリス","日本、〒395-0004 長野県飯田市上郷黒田１５１９",飯田市,その他,35.5280742,137.8371989,0265-24-3288,https://maps.google.com/?cid=10360888011633822000,true,api
ChIJn3OcoBaiHGARUvxVv8LqrSo,"（有）ササキ工業","日本、〒395-0303 長野県下伊那郡阿智村駒場４１２−４",阿智村,その他,35.4451207,137.747878,0265-45-1050,https://maps.google.com/?cid=3075372242718555218,true,api
ChIJ_7WE1RWiHGARVWTwpJsZRks,"（有）片桐鉄工所 工場","日本、〒395-0303 長野県下伊那郡阿智村駒場５４８−３",阿智村,その他,35.444441,137.74631,0265-43-3007,https://maps.google.com/?cid=5424050957492184149,true,api
ChIJdYM_lXCZHGARoZ4gnjZ0ifE,"Agu hair sora 飯田","日本、〒395-0804 長野県飯田市鼎名古熊２５０５−１２ 2F",飯田市,その他,35.4977887,137.8316771,0265-48-5795,https://maps.google.com/?cid=17404570012879986337,true,api
ChIJJU2y4sOZHGARuJK1W6TFdTI,"ハートケア蒼い風かすたねっと","日本、〒395-0071 長野県飯田市今宮町２丁目５９",飯田市,その他,35.5205892,137.8186382,0265-49-4005,https://maps.google.com/?cid=3636029583875478200,true,api
ChIJy_xzbOyZHGAR8PL2hLZ75Rc,"グループホーム大門","日本、〒395-0011 長野県飯田市大門町２２",飯田市,その他,35.5235518,137.8287716,0265-48-0877,https://maps.google.com/?cid=1721918456384123632,true,api
ChIJg1yoA-2ZHGARoFxCey9AsRM,"片桐美容商事","日本、〒395-0011 長野県飯田市大門町１２７−１",飯田市,その他,35.5229744,137.830553,0265-22-2393,https://maps.google.com/?cid=1418985930274004128,true,api
ChIJSV-MKXSZHGARVTeV-_5Hrzg,"金山工業（株）","日本、〒395-0804 長野県飯田市鼎２４８７−１",飯田市,その他,35.49936,137.827844,0265-24-3618,https://maps.google.com/?cid=4084562547516454741,true,api
ChIJBxCAO0uYHGARhemgUs8Zqmg,"（有）飯田スクリーン工業","日本、〒395-0151 長野県飯田市北方３４８−７",飯田市,その他,35.5060769,137.802306,0265-24-5471,https://maps.google.com/?cid=7541868904220518789,true,api
ChIJLWP41PCZHGARpyFek0X1-Mo,"杉本印刷（株） オフリン工場","日本、〒395-0004 長野県飯田市上郷黒田２２９０",飯田市,その他,35.5311191,137.8376426,0265-53-8611,https://maps.google.com/?cid=14625709469059654055,true,api
ChIJCYXpUDaYHGARiLZUdQSGQoA,"一陽会","日本、〒395-0151 長野県飯田市北方",飯田市,その他,35.5084163,137.7963938,,https://maps.google.com/?cid=9242096739024156296,true,api
ChIJORs_TcOZHGARV8_Q48Ew0pE,"ナチュラル","日本、〒395-0071 長野県飯田市今宮町４丁目６２２４−６",飯田市,その他,35.525057,137.818682,0265-21-4016,https://maps.google.com/?cid=10507514489917722455,true,api
ChIJdwfZDyyYHGARIds7gvaRLDo,"わたぼうし・認知症老人グループホーム","日本、〒395-0067 長野県飯田市羽場町１６１８",飯田市,その他,35.520616,137.799015,0265-24-2315,https://maps.google.com/?cid=4191885841108032289,true,api
ChIJF3Eid-uaHGARGm5UZbUF4vM,"南信森林管理署 豊丘森林事務所","日本、〒399-3202 長野県下伊那郡豊丘村神稲２２８",豊丘村,その他,35.547903,137.897791,0265-35-2078,https://maps.google.com/?cid=17573614972600348186,true,api
ChIJW6XlIv-aHGARvzccx4zoKew,"田端機工（株）","日本、〒399-3202 長野県下伊那郡豊丘村神稲９３０５−１",豊丘村,その他,35.529542,137.884176,0265-35-7115,https://maps.google.com/?cid=17017388358329710527,true,api
ChIJa-XOKf-aHGAR0oYhqBrh9Nc,"小澤精工","日本、〒399-3202 長野県下伊那郡豊丘村神稲９３０３−５",豊丘村,その他,35.530367,137.884693,0265-34-3657,https://maps.google.com/?cid=15561310117078075090,true,api
ChIJ9fpZQpmZHGARErb_5_H_-m0,"みなみ信州介護センターあぐり デイサービスセンターあぐりかなえ","日本、〒395-0806 長野県飯田市鼎上山２６６２−１",飯田市,その他,35.5047516,137.8205567,0265-24-0084,https://maps.google.com/?cid=7924927908756305426,true,api
ChIJ95w8zgGQHGARixLOdZYpxHo,"ASフーズ 長野松川工場","日本、〒399-3302 長野県下伊那郡松川町生田８２４−１",下伊那郡,飲食,35.580594,137.9211603,0265-36-7554,https://maps.google.com/?cid=8846241294260769419,true,api
ChIJEekvrsCZHGAR-4sRmQexTUc,"社会医療法人栗山会 飯田病院","日本、〒395-0056 長野県飯田市大通１丁目15番地",飯田市,その他,35.5165169,137.8186253,0265-22-5150,https://maps.google.com/?cid=5137957396090555387,true,api
ChIJ437nbfeZHGARk2LgFyDMX0c,"ＪＡみなみ信州 いいだ果実選果場","日本、〒395-0004 長野県飯田市上郷黒田２５４０−２７",飯田市,その他,35.5332038,137.8396364,0265-21-1711,https://maps.google.com/?cid=5143053737691996819,true,api
ChIJFR8gWWWZHGARpAph0uYHtpw,"飯田短期大学","日本、〒395-8567 長野県飯田市松尾代田６１０",飯田市,その他,35.4943138,137.833305,0265-22-4460,https://maps.google.com/?cid=11292221803631544996,true,api
ChIJle0hnEmNHGAReT26ACbcP0o,"旬のフルーツタルトkuus駒ヶ根店","日本、〒399-4108 長野県駒ヶ根市下市場４０−１",駒ヶ根市,飲食,35.7248929,137.9394225,0265-96-0466,https://maps.google.com/?cid=5350236938118511993,true,api
ChIJb1FDAoiQHGAROx1b5ECNodI,"佳芳みつ蜂","日本、〒399-3101 長野県下伊那郡高森町山吹４３４−１４",下伊那郡,飲食,35.57071639999999,137.8821729,0265-34-3845,https://maps.google.com/?cid=15177567529063882043,true,api
ChIJP1eTraKRHGAR5LSGgoAihE0,"宇寿田製菓","日本、〒399-3301 長野県下伊那郡松川町上片桐１９４４",下伊那郡,飲食,35.6190562,137.8918853,0265-37-2139,https://maps.google.com/?cid=5585627373187282148,true,api
ChIJ__8_fnnwHGAR5IuMB4Za0H8,"miwa & torte","日本、〒399-4511 長野県上伊那郡南箕輪村南原９６３３−３",南箕輪村,飲食,35.8582992,137.9271646,0265-98-7673,https://maps.google.com/?cid=9209960769671433188,true,api
ChIJexcNQ-ebHGARtYRtMmt4qlM,"スーパーマーケットバロー松尾店","日本、〒395-0823 長野県飯田市松尾明７９３３−１",飯田市,飲食,35.4877736,137.8480818,0265-59-7322,https://maps.google.com/?cid=6028763452991702197,true,api
ChIJCxkOK17yHGARYqQpQ7O__Q0,"竹心缘物产店","日本、〒399-4301 長野県上伊那郡宮田村北町１３８",宮田村,飲食,35.7696021,137.9418245,0265-85-2076,https://maps.google.com/?cid=1008172668247712866,true,api
ChIJkzczVFqSHGARnaarxKWh7Is,"自然酵母パン チョコタン","日本、〒399-3705 長野県上伊那郡飯島町七久保３７０５−１６８",飯島町,飲食,35.6681928,137.8943635,0265-98-7265,https://maps.google.com/?cid=10082611399116957341,true,api
ChIJIxrH2rDyHGARv-2y3VDW_rg,"和スイーツ圓月堂","日本、〒399-4112 長野県駒ヶ根市中央４−１７",駒ヶ根市,飲食,35.735969,137.9359563,0265-83-2733,https://maps.google.com/?cid=13330327589868465599,true,api
ChIJqbZ76hiQHGARr-z1Tqfl1ME,"パティスリー アンサンブル","日本、〒399-3303 長野県下伊那郡松川町元大島１３４１−１",下伊那郡,飲食,35.5922816,137.9157523,0265-34-0226,https://maps.google.com/?cid=13967040851129789615,true,api
ChIJeXVgicC7HGAReP75w0X9Tbg,"自家製酵母ぱん 耕紡工房","日本、〒395-0401 長野県下伊那郡阿智村清内路３１２３−２６",阿智村,飲食,35.5217478,137.6624163,090-8430-2225,https://maps.google.com/?cid=13280549352267972216,true,api
ChIJuUNVh8mPHGARzNsnF7gIxBQ,"山のパン屋さん","日本、〒399-3803 長野県上伊那郡中川村葛島１９５７−１",中川村,飲食,35.6173578,137.939319,090-4153-8083,https://maps.google.com/?cid=1496330562949340108,true,api
ChIJk8DHF5SnHGAR8ZWqz1EId_c,"グランマ","日本、〒395-0601 長野県下伊那郡平谷村３０８−１",平谷村,飲食,35.3236892,137.6326398,,https://maps.google.com/?cid=17831730397066204657,true,api
ChIJ_6DtaYftHGARgBSI81OOXkM,"まめぱんや","日本、〒399-4301 長野県上伊那郡宮田村北割",宮田村,飲食,35.764175,137.921006,090-2220-9167,https://maps.google.com/?cid=4854473939571184768,true,api
ChIJnekbUhLxHGARBr8q_Rfm14M,"菓子庵石川ベルシャイン伊那直営店","日本、〒396-0009 長野県伊那市日影４３５−１",伊那市,飲食,35.837649,137.973403,0265-78-0038,https://maps.google.com/?cid=9500314929667424006,true,api
ChIJlRSXMnPxHGARS4LbhY5ahpE,"スーパーマーケットバロー伊那境店","日本、〒396-0010 長野県伊那市境８５６６",伊那市,飲食,35.8285336,137.9736802,0265-71-5288,https://maps.google.com/?cid=10486168350556389963,true,api
ChIJn4qmHkHwHGAR9iF4GJSOCUQ,"ベーカリーベルグ","日本、〒399-4511 長野県上伊那郡南箕輪村沢尻９４６６−４",南箕輪村,飲食,35.8553763,137.9443081,0265-74-8055,https://maps.google.com/?cid=4902606436086325750,true,api
ChIJmdAwf7XZHGARnKbF_s_haTE,"Bee's Bakery","日本、〒397-0101 長野県木曽郡木曽町三岳６３５６",木曽町,飲食,35.8451146,137.6261131,0264-46-2843,https://maps.google.com/?cid=3560625263861933724,true,api
ChIJf6suopf6HGARaIEVxpMwVP8,"道の駅 大芝高原 味工房","日本、〒399-4511 長野県上伊那郡南箕輪村2358番地5",南箕輪村,飲食,35.8864454,137.9444392,0265-76-0054,https://maps.google.com/?cid=18398383788956942696,true,api
ChIJAQAQZkrlHGARvw7KiLD3sLs,"手づくりパン工房 麦の家","日本、〒396-0041 長野県伊那市西箕輪３４１５",伊那市,飲食,35.8824561,137.9188505,0265-74-1833,https://maps.google.com/?cid=13524582018574847679,true,api
ChIJWxw7nJXwHGAR91K7Uc_VZfY,"ニコ・テイル","日本、〒399-4511 長野県上伊那郡南箕輪村北殿３３８２−１",南箕輪村,飲食,35.8763033,137.9801032,0265-76-5717,https://maps.google.com/?cid=17754832192384226039,true,api
ChIJn8QuPKeZHGARUUZhjSZBhuw,"ミスタードーナツ 飯田ショップ","日本、〒395-0804 長野県飯田市鼎名古熊６６０−１",飯田市,飲食,35.498696,137.8172677,0265-53-3515,https://maps.google.com/?cid=17043381473666745937,true,api
ChIJ5ffQDLXyHGARw9EYWPSLn50,"ル・プレジール","日本、〒399-4103 長野県駒ヶ根市梨の木３−１",駒ヶ根市,飲食,35.73253,137.940423,0265-83-1388,https://maps.google.com/?cid=11357950666817982915,true,api
ChIJGR_dmFiYHGARBOKoUO0fmCM,"ラパンフレミヤザワ","日本、〒395-0156 長野県飯田市中村１１８１−３",飯田市,飲食,35.4859685,137.7897884,0265-25-4889,https://maps.google.com/?cid=2564835091908452868,true,api
ChIJLVisbYiZHGARv-ggwi042Go,"LIT.","日本、〒395-0004 長野県飯田市上郷黒田４５６",飯田市,飲食,35.5173664,137.8412943,0265-49-8489,https://maps.google.com/?cid=7698965332171483327,true,api
ChIJx5Tn8aWRHGARupoId55saZM,"Boulangerie みかづき","日本、〒399-3304 長野県下伊那郡松川町大島７８２−２",下伊那郡,飲食,35.609294,137.887796,0265-36-2221,https://maps.google.com/?cid=10622140623987710650,true,api
ChIJFTd-_EWOHGAR_Hisfq_QYbk,"あかいみ","日本、〒399-3801 長野県上伊那郡中川村大草３９５３−１",中川村,飲食,35.6340867,137.9428512,080-5109-0196,https://maps.google.com/?cid=13358187421920688380,true,api
ChIJgSlKfrzyHGARMzqSv0Ut0ys,"食パンのお店 盛屋","日本、〒399-4116 長野県駒ヶ根市上穂北２５−１",駒ヶ根市,飲食,35.7416658,137.9342372,070-1323-0601,https://maps.google.com/?cid=3157917541306874419,true,api
ChIJbeA_vaveHGARWltViObv36Y,"ぷるまん","日本、〒397-0001 長野県木曽郡木曽町福島児野６４４１−６",木曽町,飲食,35.8370131,137.6855512,0264-24-2345,https://maps.google.com/?cid=12024593303511325530,true,api
ChIJv6QRZKjxHGARth0fduM5DQA,"サーティワンアイスクリーム MEGAドン・キホーテUNY伊那店","日本、〒396-0026 長野県伊那市西町5182ｰ1",伊那市,飲食,35.831933,137.9498082,0265-76-3313,https://maps.google.com/?cid=3722823799348662,true,api
ChIJtd-KR9peHGARbC9KHQESIDw,"信州薪窯パン野良屋","日本、〒396-0303 長野県伊那市高遠町荊口１４２５",伊那市,飲食,35.8713364,138.1262044,0265-94-3618,https://maps.google.com/?cid=4332482637526085484,true,api
ChIJnaq94zD6HGAR71uOaD0TXHs,"パン工房たきざわ","日本、〒399-4601 長野県上伊那郡箕輪町中箕輪 中箕輪2508-2",箕輪町,飲食,35.9241536,137.9877882,0265-98-5171,https://maps.google.com/?cid=8889000918990609391,true,api
ChIJ74D_bnftHGARXSJ3CgfPb8c,"ル・ノール・リヴィエール","日本、〒399-4301 長野県上伊那郡宮田村１９３４−５",宮田村,飲食,35.7512123,137.9111445,0265-85-4145,https://maps.google.com/?cid=14370932565109842525,true,api
ChIJfxZTDC2hHGARwH1z3YR3Oso,"峠のパン屋 キッチンストーブ","日本、〒395-0501 長野県下伊那郡阿智村浪合１１９２",阿智村,飲食,35.3535322,137.6697113,0265-47-2143,https://maps.google.com/?cid=14572090956845383104,true,api
ChIJ_TzygJaZHGAR92hnms7hWfo,"一不二","日本、〒395-0045 長野県飯田市知久町１丁目８",飯田市,飲食,35.5142473,137.8254209,0265-22-1483,https://maps.google.com/?cid=18039698059879213303,true,api
ChIJl6_PsL6ZHGARpfLDODAURA4,"エンゼル","日本、〒395-0054 長野県飯田市箕瀬町３丁目2523ー1",飯田市,飲食,35.5132069,137.8185263,0265-22-1264,https://maps.google.com/?cid=1027968812290667173,true,api
ChIJLW7GANiRHGARC1OOick472w,"セブン-イレブン 信州中川村店","日本、〒399-3802 長野県上伊那郡中川村片桐１７５２−１",中川村,飲食,35.6243241,137.9217426,0265-88-3202,https://maps.google.com/?cid=7849555113777451787,true,api
ChIJo7oxebGSHGARNqIOGgoKl5k,"デイリーヤマザキ 中央道駒ヶ岳ＳＡ下り店","日本、〒399-4117 長野県駒ヶ根市赤穂１５−１８３",駒ヶ根市,飲食,35.7124402,137.9092899,0265-82-6483,https://maps.google.com/?cid=11067325647789400630,true,api
ChIJ7yo4u7HyHGAR0m_uJzH4uYc,"セブン-イレブン 駒ヶ根中央店","日本、〒399-4114 長野県駒ヶ根市上穂南１−７",駒ヶ根市,飲食,35.733361,137.933355,0265-83-7011,https://maps.google.com/?cid=9780120955818766290,true,api
ChIJ3_fSWuyZHGARU_ID2vtEy0Y,"セブン-イレブン 飯田大門店","日本、〒395-0011 長野県飯田市大門町８４−１５",飯田市,飲食,35.5235646,137.8295915,0265-59-7155,https://maps.google.com/?cid=5101246851412390483,true,api
ChIJO9kw94OZHGARFnUAvbTCqVY,"セブン-イレブン 飯田水の手店","日本、〒395-0025 長野県飯田市東中央通５丁目８５ ９２番地",飯田市,飲食,35.5101287,137.837072,0265-52-0326,https://maps.google.com/?cid=6244736439846728982,true,api
ChIJ6zUGBniZHGAREBknUa5WXO8,"セブンイレブン 飯田鼎下山店","日本、〒395-0803 長野県飯田市鼎下山８２０番地１",飯田市,飲食,35.5040584,137.8334862,0265-22-7112,https://maps.google.com/?cid=17247755979607972112,true,api
ChIJa7FQmnfGHGARkO7ibUdhYas,"デイリーヤマザキ 大桑野尻店","日本、〒399-5504 長野県木曽郡大桑村野尻２４６５",大桑村,飲食,35.669506,137.634875,0264-55-3981,https://maps.google.com/?cid=12349258612640771728,true,api
ChIJuROkC0jDHGARVmWKiLvQXBc,"デイリーヤマザキ 木曽上松寝覚店","日本、〒399-5608 長野県木曽郡上松町荻原２３９３",上松町,飲食,35.7641128,137.7035137,0264-52-4139,https://maps.google.com/?cid=1683449864597955926,true,api
ChIJAQaiEaaZHGARMA8WuT4YwoY,"ローソン 飯田バイパス店","日本、〒395-0805 長野県飯田市鼎一色３９２−１",飯田市,飲食,35.4999369,137.8139614,0265-59-7511,https://maps.google.com/?cid=9710350404236480304,true,api
ChIJ0SN90WCZHGARZBMZmH1f4WM,"セブンイレブン 飯田毛賀店","日本、〒395-0813 長野県飯田市毛賀２３９−２",飯田市,飲食,35.4850429,137.8380756,0265-22-0709,https://maps.google.com/?cid=7197138672542094180,true,api
ChIJz4MJw7TcHGARnFf_Tq8nkSI,"セブン-イレブン 木曽上松寝覚店","日本、〒399-5607 長野県木曽郡上松町小川２３４１−１",上松町,飲食,35.7729113,137.7014443,0264-52-5711,https://maps.google.com/?cid=2490815702810711964,true,api
ChIJDa6N7GqiHGAR7jmf77O6A54,"デイリーヤマザキ 阿智PA上り店","日本、〒395-0303 長野県下伊那郡阿智村駒場１１７−１",阿智村,飲食,35.4499623,137.7453831,0265-43-4660,https://maps.google.com/?cid=11386149564904847854,true,api
ChIJt4BwIQ-jHGARl5Acfy3Uh5U,"ファミリーマート 信州昼神店","日本、〒395-0304 長野県下伊那郡阿智村智里４３０−１",阿智村,飲食,35.4574912,137.714714,0265-45-0032,https://maps.google.com/?cid=10774813925378396311,true,api
ChIJR_54f2DtHGARhtX3LeB8APc,"セブン-イレブン 駒ヶ根インター店","日本、〒399-4117 長野県駒ヶ根市赤穂９２８−６",駒ヶ根市,飲食,35.7396534,137.9195759,0265-83-2299,https://maps.google.com/?cid=17798363029653935494,true,api
ChIJKY_72JGZHGAR4xNnXXAMbrE,"セブンイレブン 飯田江戸町店","日本、〒395-0015 長野県飯田市江戸町２丁目２９０−１",飯田市,飲食,35.5165977,137.8302883,0265-23-2551,https://maps.google.com/?cid=12785170068894323683,true,api
ChIJo6IPXpiZHGARhAysyjXHRb4,"モンマートいぎみ","日本、〒395-0801 長野県飯田市鼎中平２５４４−１ ハイツいぎみ",飯田市,飲食,35.5074086,137.8242643,0265-22-0777,https://maps.google.com/?cid=13710583674446810244,true,api
ChIJm28OPMKZHGARHXCAmJcpK2o,"ローソン 飯田高羽町店","日本、〒395-0051 長野県飯田市高羽町３丁目４−３",飯田市,飲食,35.5225601,137.8214538,0265-23-3006,https://maps.google.com/?cid=7650254123094274077,true,api
ChIJy8CaKLSZHGAR7WI-9yI0uo8,"ファミリーマート 飯田鼎切石店","日本、〒395-0807 長野県飯田市鼎切石４６５７−１",飯田市,飲食,35.5120099,137.8049426,0265-56-4018,https://maps.google.com/?cid=10356647617873470189,true,api
ChIJ_8FBK5WbHGARL91Bsey47DQ,"ファミリーマート 飯田松尾新井店","日本、〒395-0821 長野県飯田市松尾６７５５−１",飯田市,飲食,35.5000111,137.8596618,0265-21-4315,https://maps.google.com/?cid=3813626311201643823,true,api
ChIJO_P5daiQHGAR8PBcPNFH9-s,"ファミリーマート ＪＡ高森フルーツライン店","日本、〒399-3105 長野県下伊那郡高森町牛牧１３２−１",下伊那郡,飲食,35.5490638,137.8593569,0265-34-3112,https://maps.google.com/?cid=17003137882147057904,true,api
ChIJxaE-1nuYHGAR_B7B-de8ihI,"ファミリーマート 飯田山本店","日本、〒395-0244 長野県飯田市山本３９６−２",飯田市,飲食,35.4829989,137.7686759,0265-28-1531,https://maps.google.com/?cid=1336087875262947068,true,api
ChIJQSrSKhWiHGARKNlCMqZP7MQ,"ファミリーマート 阿智ＰＡ下り店","日本、〒395-0303 長野県下伊那郡阿智村駒場１２１−２",阿智村,飲食,35.4489173,137.7464201,0265-45-1044,https://maps.google.com/?cid=14189804101163997480,true,api
ChIJA2tbujyQHGAR7B3JWvTDcGw,"セブン-イレブン 松川町役場前店","日本、〒399-3303 長野県下伊那郡松川町元大島３８０４−２",下伊那郡,飲食,35.5956453,137.9112707,0265-36-6733,https://maps.google.com/?cid=7813960807750376940,true,api
ChIJ24VpNyGOHGARTBVkRlZ4GUs,"ファミリーマート ＪＡ中川店","日本、〒399-3802 長野県上伊那郡中川村片桐３９９６−１",中川村,飲食,35.6297658,137.9251229,0265-88-6033,https://maps.google.com/?cid=5411488739205846348,true,api
ChIJAYigQ4-NHGARPb_qTlxRDu0,"ファミリーマート ＪＡいいじま店","日本、〒399-3702 長野県上伊那郡飯島町飯島１７９３−７",飯島町,飲食,35.68429150000001,137.9394766,0265-86-8015,https://maps.google.com/?cid=17081679893565718333,true,api
ChIJA1NcE4jxHGARNnAzxkfnJdI,"セブン-イレブン 伊那東春近店","日本、〒399-4432 長野県伊那市東春近渡場１２６５−２",伊那市,飲食,35.8081115,137.9506009,0265-76-7338,https://maps.google.com/?cid=15142763617557114934,true,api
ChIJAQDQDl_yHGARv_zIEoYO-GY,"セブン-イレブン 宮田駒ヶ原店","日本、〒399-4301 長野県上伊那郡宮田村６２４６−１",宮田村,飲食,35.7560493,137.9426133,0265-85-4440,https://maps.google.com/?cid=7419696355096460479,true,api
ChIJCTe_8lzyHGARf3WQ8bhpuX8,"ローソン 伊那赤木店","日本、〒399-4431 長野県伊那市西春近８５４３−１",伊那市,飲食,35.7760626,137.9450769,0265-98-0170,https://maps.google.com/?cid=9203503556555994495,true,api
ChIJNVdDXCPyHGARmZy0Ak2bJPU,"セブン-イレブン 伊那沢渡店","日本、〒399-4431 長野県伊那市西春近沢渡５５１４",伊那市,飲食,35.7970204,137.9461072,0265-96-7215,https://maps.google.com/?cid=17664414393514106009,true,api
ChIJHSohxwvxHGARklhcIUg_yJ8,"セブン-イレブン 伊那狐島店","日本、〒396-0014 長野県伊那市狐島４２５４−２",伊那市,飲食,35.83456109999999,137.9648411,0265-73-8977,https://maps.google.com/?cid=11513522026402568338,true,api
ChIJnejm2OfxHGARsIfOWkWguqw,"セブン-イレブン 伊那西春近店","日本、〒399-4431 長野県伊那市西春近小出三区３１３６−３",伊那市,飲食,35.8154522,137.9316737,0265-74-7110,https://maps.google.com/?cid=12446436739928459184,true,api
ChIJPWxDeXrxHGAR9nNdQk3UeYM,"セブン-イレブン 伊那東春近車屋店","日本、〒399-4432 長野県伊那市東春近車屋５６−１",伊那市,飲食,35.8235647,137.9685075,0265-73-9702,https://maps.google.com/?cid=9473836719441540086,true,api
ChIJxecUCIXeHGARs83m1xDopgM,"デイリーヤマザキ 木曽福島新開店","日本、〒397-0002 長野県木曽郡木曽町新開２１６４−１",木曽町,飲食,35.8578938,137.7169499,0264-24-3018,https://maps.google.com/?cid=263152787287100851,true,api
ChIJNZwtZnXxHGARnIFNkc3C5QI,"セブン-イレブン 伊那上新田店","日本、〒396-0012 長野県伊那市上新田２５４３−１",伊那市,飲食,35.8287555,137.9621971,0265-76-2311,https://maps.google.com/?cid=208787145904456092,true,api
ChIJubTC23LxHGARM5d2nb2JFuo,"ファミリーマート ＪＡいな竜東店","日本、〒396-0010 長野県伊那市境１５８８−１",伊那市,飲食,35.8321489,137.9687029,0265-71-7858,https://maps.google.com/?cid=16867820901846390579,true,api
ChIJH-zi86zxHGARwQpFUZhasho,"ファミリーマート ＪＡいな店","日本、〒396-0025 長野県伊那市荒井３６７０−１",伊那市,飲食,35.8430256,137.9550209,0265-77-1125,https://maps.google.com/?cid=1923699601085631169,true,api
ChIJdxSnDrj1HGARxo7RnxCd0sM,"セブン-イレブン 高遠小原店","日本、〒396-0215 長野県伊那市高遠町小原６５７−１",伊那市,飲食,35.831857,138.0517504,0265-94-2772,https://maps.google.com/?cid=14110513277231533766,true,api
ChIJnyMxqx7wHGARm3DymHbBCzg,"ファミリーマート 伊那ごんべい店","日本、〒396-0031 長野県上伊那郡伊那市中の原８２２８−３１５",伊那市,飲食,35.8552211,137.9267483,0265-71-4010,https://maps.google.com/?cid=4038534205984108699,true,api
ChIJ2frTORveHGARzrIKYPIe-bo,"セブン-イレブン 木曽町日義店","日本、〒399-6101 長野県木曽郡木曽町日義１６８３−１",木曽町,飲食,35.8774376,137.7573031,0264-26-2785,https://maps.google.com/?cid=13472833786597782222,true,api
ChIJpUrY67byHGARR0JxzSb-QDM,"Ａ・コープ ファーマーズこまがね店","日本、〒399-4106 長野県駒ヶ根市東町３−１５１３１−１",駒ヶ根市,飲食,35.7359037,137.9379737,0265-81-1107,https://maps.google.com/?cid=3693231137052770887,true,api
ChIJK8wS1J6ZHGARSoJjVRwQbMk,"キラヤ 鼎店","日本、〒395-0801 長野県飯田市鼎中平１９１１−３",飯田市,飲食,35.5053103,137.8257088,0265-52-3800,https://maps.google.com/?cid=14513993412985979466,true,api
ChIJM51Xzq2bHGAR8HKcALeGJsg,"Ａ・コープ たかぎ店","日本、〒395-1100 長野県下伊那郡喬木村１２８２",喬木村,飲食,35.5180345,137.874419,0265-33-4488,https://maps.google.com/?cid=14422362977247982320,true,api
ChIJpVFgvkKNHGARiylk63kERE4,"ニシザワ福岡食彩館","日本、〒399-4117 長野県駒ヶ根市赤穂福岡９２７６",駒ヶ根市,飲食,35.71020499999999,137.932783,0265-81-0511,https://maps.google.com/?cid=5639637555061467531,true,api
ChIJlQd0FcaZHGAR8mz-FFXuz-o,"Aコープ ファーマーズいいだ店","日本、〒395-0072 長野県飯田市曙町１４２ ファーマーズ いいだ店",飯田市,飲食,35.5175598,137.8141422,0265-23-7788,https://maps.google.com/?cid=16920004374246092018,true,api
ChIJ4Xd_lq-fHGARKoVLakq_18s,"スーパーさかや","日本、〒399-2101 長野県下伊那郡下條村睦沢５２５",下條村,飲食,35.4077205,137.7944493,0260-27-2128,https://maps.google.com/?cid=14688419036023981354,true,api
ChIJk4NYwCaOHGARnGdk318upcI,"チャオ 生鮮食品館","日本、〒399-3802 長野県上伊那郡中川村片桐３９６９",中川村,飲食,35.628601,137.9253393,0265-88-1122,https://maps.google.com/?cid=14025667603819947932,true,api
ChIJGa0iHjuQHGARrkQWE5xKV3M,"エーコープ リカまつかわ店","日本、〒399-3303 長野県下伊那郡松川町元大島３２７４−６",下伊那郡,飲食,35.5980502,137.9106281,0265-36-2577,https://maps.google.com/?cid=8311193671531119790,true,api
ChIJM-WAZhGSHGAR7wnigLVAH7U,"Ａ・コープ 七久保店","日本、〒399-3705 長野県上伊那郡飯島町七久保北街道１５３９−２",飯島町,飲食,35.6577456,137.9084006,0265-86-3735,https://maps.google.com/?cid=13051221393438542319,true,api
ChIJiYQldROiHGARcenc5rAfGZI,"Aコープ ラックあち店","日本、〒395-0301 長野県下伊那郡阿智村春日３２２０",阿智村,飲食,35.448401,137.750168,0265-43-2003,https://maps.google.com/?cid=10527480448603187569,true,api
ChIJiX8iEfXyHGARxOhyCIDnZHg,"A・コープ 宮田店","日本、〒399-4301 長野県上伊那郡宮田村３３２８",宮田村,飲食,35.766321,137.943224,0265-84-1202,https://maps.google.com/?cid=8675313319305996484,true,api
ChIJ7c8fg_TyHGARzMm_fY7jNL4,"ニシザワ宮田食彩館","日本、〒399-4301 長野県上伊那郡宮田村河原町６６８１",宮田村,飲食,35.76361929999999,137.9437606,0265-85-3585,https://maps.google.com/?cid=13705829767129844172,true,api
ChIJYbuodf_DHGARr8XH6S5e2XA,"マルトシ生鮮食品館 木曽須原店","日本、〒399-5502 長野県木曽郡大桑村須原１１０１−１",大桑村,飲食,35.6958333,137.6861111,0264-55-1006,https://maps.google.com/?cid=8131634157777831343,true,api
ChIJm5J3hnOQHGARfYXQhMcvoCo,"リーズデリ 高森店","日本、〒399-3101 長野県下伊那郡高森町山吹４５１５",下伊那郡,飲食,35.5734758,137.8991007,0265-35-1365,https://maps.google.com/?cid=3071507479839933821,true,api
ChIJjYGkxKLcHGARN_C08fGzu7U,"大澤商店","日本、〒399-5603 長野県木曽郡上松町駅前通り１丁目３３",上松町,飲食,35.7850312,137.6938672,0264-52-2021,https://maps.google.com/?cid=13095258193233506359,true,api
ChIJ6xT3fqreHGARC7v2t9HdrQE,"エーコープ きそ店","日本、〒397-0001 長野県木曽郡木曽町福島塩淵２８７２",木曽町,飲食,35.8379558,137.6875218,0264-23-3271,https://maps.google.com/?cid=120996657813175051,true,api
ChIJGzJzcwnxHGARzO8hnXpUyQg,"Aコープ 伊那中央店","日本、〒396-0014 長野県伊那市狐島４３８５−１",伊那市,飲食,35.8364884,137.9642399,0265-72-9644,https://maps.google.com/?cid=633130108221255628,true,api
ChIJEV5C2HDxHGARvnMTJdlsRes,"ＪＡ上伊那 本所","日本、〒396-0014 長野県伊那市狐島４２９１",伊那市,飲食,35.8356092,137.964253,0265-72-6110,https://maps.google.com/?cid=16953076052191835070,true,api
ChIJ5TpfkQ3wHGARN9il33im7OE,"ニシザワショッパーズ 食彩館 信大前店","日本、〒399-4511 長野県上伊那郡南箕輪村三本木８３０４−１５８",南箕輪村,飲食,35.8656059,137.9383482,0265-73-2166,https://maps.google.com/?cid=16279569791115974711,true,api
ChIJObJcPwHxHGARbPq15Nt6N-4,"業務スーパーモダンパック伊那店","日本、〒396-0022 長野県伊那市御園７３−１",伊那市,飲食,35.8523108,137.9715002,0265-74-6667,https://maps.google.com/?cid=17165323589599492716,true,api
ChIJIbWwSqT2HGARyMN_FCtsIfc,"A・コープ 美すず店","日本、〒396-0111 長野県伊那市美篶上原４２８３−３",伊那市,飲食,35.839614,138.013427,0265-72-3005,https://maps.google.com/?cid=17807633333882962888,true,api
ChIJzz19KBzgHGARTkI4lT3bEKs,"スーパーマーケットまると","日本、〒399-6201 長野県木曽郡木祖村薮原１８１２",木祖村,飲食,35.9461205,137.7784494,0264-36-2029,https://maps.google.com/?cid=12326593237656027726,true,api
ChIJJ2uAOa_eHGAR_STM4fCgfkY,"イオン 木曽福島店","日本、〒397-0001 長野県木曽郡木曽町福島５３９８−１",木曽町,飲食,35.8456105,137.6932091,0264-23-3388,https://maps.google.com/?cid=5079674386161345789,true,api
ChIJKz5J-ySaHGAR0mTMUsM0uys,"イオン 飯田店","日本、〒395-0002 長野県飯田市上郷飯沼１５７５",飯田市,飲食,35.5234194,137.8511615,0265-52-9111,https://maps.google.com/?cid=3151170377788187858,true,api
ChIJX8HZkpLxHGARsbvOougdFvY,"ニシザワ春近食彩館","日本、〒399-4431 長野県伊那市西春近小出島区２８７８",伊那市,飲食,35.814118,137.943295,0265-76-3333,https://maps.google.com/?cid=17732393467818982321,true,api
ChIJ4_tTj7j1HGARIgafVL8HcfE,"ニシザワ高遠食彩館","日本、〒396-0215 長野県伊那市高遠町小原９４７−１",伊那市,飲食,35.832367,138.053422,0265-94-1055,https://maps.google.com/?cid=17397695353848792610,true,api
ChIJDWZ9qvaZHGARo7Os67dJPhM,"キラヤ 黒田店","日本、〒395-0004 長野県飯田市上郷黒田１５４９−１",飯田市,飲食,35.5288954,137.8380266,0265-52-1811,https://maps.google.com/?cid=1386626789558498211,true,api
ChIJD7JFB_KZHGARNtdtNJ2ex1g,"なみきマーケット","日本、〒395-0044 長野県飯田市本町１丁目１５",飯田市,飲食,35.51474380000001,137.8253813,0265-49-4550,https://maps.google.com/?cid=6397256193729746742,true,api
ChIJ5cVL68WZHGARKrkPpCu6woM,"キラヤ上飯田店","日本、〒395-0076 長野県飯田市白山町３丁目東１−７",飯田市,飲食,35.51965930000001,137.8139689,0265-52-2330,https://maps.google.com/?cid=9494355661049280810,true,api
ChIJiQpilaaZHGARQ487GHZ0k8c,"イオンスタイル 飯田アップルロード","日本、〒395-0805 長野県飯田市鼎一色４５６",飯田市,飲食,35.50076,137.8167293,0265-22-5531,https://maps.google.com/?cid=14380966085685645123,true,api
ChIJWXC2UNmZHGARddIKSuqwbNU,"アミカ 飯田店","日本、〒395-0152 長野県飯田市育良町１丁目１７−１４",飯田市,飲食,35.5053655,137.801332,0265-25-0211,https://maps.google.com/?cid=15378861347874460277,true,api
ChIJNzsnen2ZHGARDJxYFxlED64,"中国食品 騰飛商店","日本、〒395-0816 長野県飯田市松尾２４５９−６",飯田市,飲食,35.5009533,137.8422508,0265-52-5058,https://maps.google.com/?cid=12542318361806674956,true,api
ChIJQSKzPNSbHGARZIoDnPObTX0,"フレッシュトキワ","日本、〒395-0811 長野県飯田市松尾２９４５−１１",飯田市,飲食,35.5058066,137.8462225,0265-23-3535,https://maps.google.com/?cid=9029044298544548452,true,api
ChIJO-CmVE-YHGARkf_9Z3aSDsY,"キラヤ 伊賀良店","日本、〒395-0151 長野県飯田市北方８８０",飯田市,飲食,35.500793,137.793609,0265-25-3300,https://maps.google.com/?cid=14271505306432176017,true,api
ChIJn_xe9BOYHGARh_PPQPDjJdk,"田口アルプス農園","日本、〒395-0157 長野県飯田市大瀬木２０２７",飯田市,飲食,35.5024237,137.7795592,,https://maps.google.com/?cid=15647163101387682695,true,api
ChIJU-4fkUiZHGAREj_L9QUYEN0,"エーコープ あいぱんいいだ店","日本、〒399-2565 長野県飯田市桐林１０４０−２",飯田市,飲食,35.47343499999999,137.826318,0265-26-8320,https://maps.google.com/?cid=15929258295887085330,true,api
ChIJzb3qbmGaHGARUZlVHcRP0iE,"キラヤ 高森店","日本、〒399-3103 長野県下伊那郡高森町下市田１８１８ 高森ＳＣ 内",下伊那郡,飲食,35.5455903,137.8792118,0265-34-2500,https://maps.google.com/?cid=2437098052085193041,true,api
ChIJ62ITcACfHGARmEt5tRKDJrw,"Kiraya","日本、〒399-2221 長野県飯田市龍江２５５７",飯田市,飲食,35.4570237,137.8255492,,https://maps.google.com/?cid=13557667844622732184,true,api
ChIJB_6llaWaHGARzGyACVUFOKE,"（株）アロンワールド 長野事務所","日本、〒399-3201 長野県下伊那郡豊丘村河野２６８９−２",豊丘村,飲食,35.5676492,137.9108071,0265-35-1059,https://maps.google.com/?cid=11617041101591964876,true,api
ChIJK0_ViROiHGARVmC7kJK6bA4,"阿智村共同店舗事業協同組合","日本、〒395-0303 長野県下伊那郡阿智村駒場４２６",阿智村,飲食,35.4472206,137.7489512,0265-43-3939,https://maps.google.com/?cid=1039410752671932502,true,api
ChIJK0_ViROiHGARZwaESOrQNZ4,"ピア ファッションピア","日本、〒395-0303 長野県下伊那郡阿智村駒場４２６",阿智村,飲食,35.4472206,137.7489511,0265-43-3911,https://maps.google.com/?cid=11400247736415815271,true,api
ChIJK0_ViROiHGARKfKG0pAoZmA,"ピア 三枡","日本、〒395-0303 長野県下伊那郡阿智村駒場４２６",阿智村,飲食,35.4472206,137.7489511,0265-43-5539,https://maps.google.com/?cid=6946284077738029609,true,api
ChIJXc66_yKQHGAReUqBsmZ5xNk,"キラヤ 大島店","日本、〒399-3303 長野県下伊那郡松川町元大島１４２１−５ キラヤ 大島店",下伊那郡,飲食,35.595234,137.914269,0265-36-4433,https://maps.google.com/?cid=15691800483654093433,true,api
ChIJqzIMN8V6G2ARLiY6sGyppm4,"マルモ商店","日本、〒399-1311 長野県飯田市南信濃和田１２２４",飯田市,飲食,35.3203385,137.9331908,0260-34-2261,https://maps.google.com/?cid=7973246474584204846,true,api
ChIJh5dkPDd7G2ARG6SrVLuZd5E,"遠山郷 セルフ焼肉","日本、〒399-1311 長野県飯田市南信濃和田１２２４",飯田市,飲食,35.3203249,137.9331966,0260-34-2261,https://maps.google.com/?cid=10482015687586587675,true,api
ChIJgVmAt7DyHGARbmPLH0g-jrs,"マルトシ 駒ヶ根駅前店","日本、〒399-4112 長野県駒ヶ根市中央３−５",駒ヶ根市,飲食,35.7367349,137.9360544,0265-81-0104,https://maps.google.com/?cid=13514808011277427566,true,api
ChIJB9k1aUqNHGARO9Yc92plaZk,"ファッションセンターしまむら 駒ヶ根南店","日本、〒399-4108 長野県駒ヶ根市下市場１２−３４",駒ヶ根市,飲食,35.7275092,137.9406062,0265-82-7345,https://maps.google.com/?cid=11054478270444394043,true,api
ChIJFV8KtU2YHGARNYSgW9Itiwo,"ジーンズショップ赤石アップルロード店","日本、〒395-0152 長野県飯田市育良町２丁目１−１",飯田市,買い物,35.5009583,137.799511,0265-25-6025,https://maps.google.com/?cid=759751343645688885,true,api
ChIJYdvwWqLyHGARD_Ih5KgBhhw,"ファッションセンターしまむら 駒ヶ根店","日本、〒399-4117 長野県駒ヶ根市赤穂１６２８−２",駒ヶ根市,飲食,35.7420887,137.9287496,0265-81-1046,https://maps.google.com/?cid=2055332104834773519,true,api
ChIJB5emR3WZHGARN06hb1W-w2A,"西松屋 飯田店","日本、〒395-0804 長野県飯田市鼎名古熊２２０６ 番1",飯田市,買い物,35.4991335,137.8237073,080-7181-4331,https://maps.google.com/?cid=6972625922253999671,true,api
ChIJQdXQNpSZHGARn53HyRdJES8,"お祭用品の片桐屋","日本、〒395-0043 長野県飯田市通り町１丁目７",飯田市,買い物,35.5155036,137.825873,0265-22-0889,https://maps.google.com/?cid=3391572360905072031,true,api
ChIJD6t1kZWZHGARjdC5LQRdaGw,"片桐屋本多商店","日本、〒395-0045 長野県飯田市知久町２丁目１２",飯田市,買い物,35.5151846,137.8237353,0265-22-0107,https://maps.google.com/?cid=7811595826202529933,true,api
ChIJtTWKb4iZHGARZeneqLLgpjY,"デジタルアートセンター ネオックス","日本、〒395-0001 長野県飯田市座光寺４６２３−１",飯田市,買い物,35.5310651,137.8625879,0265-52-3988,https://maps.google.com/?cid=3938081982124058981,true,api
ChIJ45OZlaaZHGARbfkhtBdiFE8,"ハニーズ飯田店","日本、〒395-0805 長野県飯田市鼎一色４５６ イオン飯田アップルロード店 ２階",飯田市,買い物,35.50076,137.8167293,0265-56-8755,https://maps.google.com/?cid=5698287282476415341,true,api
ChIJFTcTtCOQHGARN3uTmVecxwI,"アヴニール","日本、〒399-3303 長野県下伊那郡松川町元大島１４４２",下伊那郡,買い物,35.5962397,137.9154259,0265-36-4431,https://maps.google.com/?cid=200300608493943607,true,api
ChIJMbK-NLHyHGARzSdsnewDeAE,"龍水呉服","日本、〒399-4106 長野県駒ヶ根市東町４−３",駒ヶ根市,買い物,35.7349019,137.9367234,0265-82-4156,https://maps.google.com/?cid=105838906031482829,true,api
ChIJe9NYmXmZHGARmTsN8RY6q7E,"ハリカ飯田店","日本、〒395-0815 長野県飯田市松尾常盤台６４−１",飯田市,買い物,35.5013533,137.834976,0265-53-7000,https://maps.google.com/?cid=12802390235938634649,true,api
ChIJxd1aRJSZHGARUIIVHvHMTeg,"クリークス（ＣＲＥＥＫＳ）","日本、〒395-0041 長野県飯田市中央通り１丁目１６",飯田市,買い物,35.5163239,137.8262487,0265-52-2438,https://maps.google.com/?cid=16739260725969912400,true,api
ChIJUVfJWXqZHGARZ_dekFPdHT8,"フレンズ 飯田店","日本、〒395-0814 長野県飯田市八幡町４８１−４",飯田市,買い物,35.4982346,137.834578,0265-56-8650,https://maps.google.com/?cid=4548034549688235879,true,api
ChIJvSjt8HaZHGARFxC3k-Tt87U,"yamagishi","日本、〒395-0804 長野県飯田市鼎２４６１",飯田市,買い物,35.4996134,137.8293097,0265-24-9805,https://maps.google.com/?cid=13111084506192220183,true,api
ChIJVT6XzoKZHGAR5a5T3FpY4oA,"フィズ","日本、〒395-0803 長野県飯田市鼎８５７−１",飯田市,買い物,35.5057173,137.8331877,0265-52-1245,https://maps.google.com/?cid=9287082528858156773,true,api
ChIJLV93Zj-aHGARvg5qM6Dinr0,"ロン・都 飯田座光寺店","日本、〒395-0001 長野県飯田市座光寺４６０５",飯田市,買い物,35.5314632,137.8620426,0265-53-1722,https://maps.google.com/?cid=13663607497173896894,true,api
ChIJYdrJ2c2ZHGARVcHe0q1yccM,"ダイアナ スパイラル","日本、〒395-0063 長野県飯田市羽場町２丁目15番地5 メゾン小林 1−B",飯田市,買い物,35.5188644,137.808012,0265-21-5525,https://maps.google.com/?cid=14083163600656974165,true,api
ChIJZVKW2LCZHGAReWbbznQ7vUE,"ＦＵＬＬ","日本、〒395-0806 長野県飯田市鼎上山３６６１−３",飯田市,買い物,35.5072888,137.8107115,0265-23-6065,https://maps.google.com/?cid=4737007755936360057,true,api
ChIJGdbETZWZHGAR73eU6lV6UCs,"ビビアン","日本、〒395-0041 長野県飯田市中央通り３丁目１３",飯田市,買い物,35.5179675,137.8237373,0265-22-7088,https://maps.google.com/?cid=3121129051194161135,true,api
ChIJKW3bc4maHGARESK7BNWpmQs,"ダイアナ クリスタル","日本、〒399-3103 長野県下伊那郡高森町下市田２９６４−６９",下伊那郡,買い物,35.5499098,137.8851569,0265-35-1197,https://maps.google.com/?cid=835885938226438673,true,api
ChIJu9NsQJWZHGAR9DuoNBq5pfk,"ロリーポップ","５２ ３丁目 中央通り, ３丁目 中央通り 飯田市 長野県 395-0041 日本",飯田市,買い物,35.51735,137.82416,0265-22-8006,https://maps.google.com/?cid=17988987808805043188,true,api
ChIJc3UtHZSZHGAR4AdTIB0NfA8,"マコの店","日本、〒395-0031 長野県飯田市銀座１丁目１０",飯田市,買い物,35.5153775,137.8273217,0120-520-898,https://maps.google.com/?cid=1115781226428565472,true,api
ChIJq0q1ppaZHGARNswtY9xhGd8,"かぢや呉服店","日本、〒395-0031 長野県飯田市銀座２丁目１１",飯田市,買い物,35.5148813,137.8269922,0265-22-0529,https://maps.google.com/?cid=16075987944060341302,true,api
ChIJ6yCCPpWZHGARgNf4FXoAQ4U,"（有）梅村紳士服","日本、〒395-0041 長野県飯田市中央通り３丁目３",飯田市,買い物,35.5175944,137.824532,0265-22-7484,https://maps.google.com/?cid=9602519354838669184,true,api
ChIJSSJdw7DyHGARoNvrE6CQmk8,"たちばな","日本、〒399-4112 長野県駒ヶ根市中央６−１８",駒ヶ根市,買い物,35.73599900000001,137.935693,0265-83-2505,https://maps.google.com/?cid=5736056092613139360,true,api
ChIJvyp4ls2ZHGAR1iujurMaNxQ,"ナチュラ","日本、〒395-0063 長野県飯田市羽場町２丁目２２−６ Surplus Two サツミ",飯田市,買い物,35.5188744,137.8066213,0120-216-780,https://maps.google.com/?cid=1456662363710368726,true,api
ChIJIYAp_SaQHGARTSGDSnh-HN4,"ファッションセンターしまむら 松川店","日本、〒399-3303 長野県下伊那郡松川町元大島１７６９−３３",下伊那郡,飲食,35.601442,137.919141,0265-34-1084,https://maps.google.com/?cid=16004806230879183181,true,api
ChIJUTJLpbXyHGARqSvL3MurZlQ,"ふじや・アミィ","日本、〒399-4105 長野県駒ヶ根市赤須東６−１４",駒ヶ根市,買い物,35.73313840000001,137.9399354,0265-82-3260,https://maps.google.com/?cid=6081737238881446825,true,api
ChIJKW0J_KHyHGARQAmTFddW0-k,"ほていや 駒ヶ根店","日本、〒399-4117 長野県駒ヶ根市赤穂１５６８ ベルシャイン駒ヶ根店 2F",駒ヶ根市,買い物,35.742453,137.9263036,0265-81-4170,https://maps.google.com/?cid=16848906112703072576,true,api
ChIJwy2KHoKZHGARJD6FWoxsSdg,"カイエー","日本、〒395-0026 長野県飯田市鼎５５１−１",飯田市,買い物,35.5070194,137.8376366,0120-243-648,https://maps.google.com/?cid=15585107335562214948,true,api
ChIJ6_sVH5SZHGARRA7P5LK5450,"バイアフタヌーン","日本、〒395-0031 長野県飯田市銀座２丁目４",飯田市,買い物,35.515219,137.826777,0265-23-8180,https://maps.google.com/?cid=11377141261662096964,true,api
ChIJx-ydh4SZHGARqCJDD-hiqVU,"シェリ","日本、〒395-0026 長野県飯田市鼎西鼎 鼎西鼎620-1-A",飯田市,買い物,35.5100531,137.8352712,0265-49-6623,https://maps.google.com/?cid=6172573513115968168,true,api
ChIJV5n58HaZHGARvV7CSlC_iV4,"ジーユー アピタ飯田店","日本、〒395-0804 長野県飯田市鼎名古熊2461番地 アピタ飯田店 ２Ｆ",飯田市,買い物,35.500084,137.8296172,050-3096-8225,https://maps.google.com/?cid=6812186262947126973,true,api
ChIJfc3v-XaZHGARCat_LiqzUGg,"ゴールデンベア","日本、〒395-0804 長野県飯田市鼎名古熊 鼎名古熊2461 ユニーアピタ飯田 メンズ",飯田市,買い物,35.5000686,137.8296745,0265-53-8111,https://maps.google.com/?cid=7516704771831474953,true,api
ChIJZYdU7XaZHGARTz0mddeXT-c,"ライトオン アピタ飯田店","日本、〒395-0804 長野県飯田市鼎名古熊２４６１ アピタ飯田 2F",飯田市,買い物,35.499929,137.829589,0265-38-2127,https://maps.google.com/?cid=16667707697560698191,true,api
ChIJ6SX27XaZHGAR10yLUOjWCaQ,"グローブ","日本、〒395-0804 長野県飯田市鼎名古熊２４６１",飯田市,買い物,35.4997667,137.8294056,,https://maps.google.com/?cid=11820214990282640599,true,api
ChIJ1ZeW5HaZHGARs_tVY-uXUUY,"ウイング","日本、〒395-0804 長野県飯田市鼎名古熊２４６１",飯田市,買い物,35.4999468,137.8300189,0265-53-8111,https://maps.google.com/?cid=5066998093008206771,true,api
ChIJvSjt8HaZHGAROJ3lvNlNY5s,"さが美 飯田店","日本、〒395-0804 長野県飯田市鼎名古熊２４６１ アピタ飯田店 2F",飯田市,飲食,35.4998139,137.8301034,0265-21-3023,https://maps.google.com/?cid=11196878696145591608,true,api
ChIJh3zPlaaZHGARB3x-vjm6C-A,"着物たちばなそよら飯田アップルロード店","日本、〒395-0805 長野県飯田市鼎一色４５６ 2F そよら飯田アップルロード店",飯田市,買い物,35.500197,137.8160026,0265-21-7870,https://maps.google.com/?cid=16144202046411537415,true,api
ChIJhW4m-naZHGAR3e3mAs9uv28,"クロコダイル アピタ飯田店","日本、〒395-0804 長野県飯田市鼎名古熊２４６１",飯田市,買い物,35.5002363,137.8298748,0265-53-8111,https://maps.google.com/?cid=8052276494147710429,true,api
ChIJIdBL2e-ZHGARCFV5IcOCRc0,"高田衣料品店","日本、〒395-0004 長野県飯田市上郷黒田１４０６−５",飯田市,買い物,35.529629,137.832609,0265-22-5338,https://maps.google.com/?cid=14791372325760095496,true,api
ChIJ-QIzWXGZHGARgMT6rBMc8YU,"リサイクル着物屋 着楽庵","日本、〒395-0804 長野県飯田市鼎２０００",飯田市,買い物,35.4966644,137.8281256,0265-52-2314,https://maps.google.com/?cid=9651526347263755392,true,api
ChIJt6sHZTyaHGARbghECmNjdtY,"リッピングストア","日本、〒395-0002 長野県飯田市上郷飯沼２３９１−１",飯田市,買い物,35.520233,137.8466364,090-6101-9671,https://maps.google.com/?cid=15453648448393578606,true,api
ChIJ__8vdSiaHGARBF8l_ci4vWc,"ママイクコ・イオン飯田","日本、〒395-0002 長野県飯田市上郷飯沼１５７５ イオン飯田2F",飯田市,買い物,35.5236173,137.8511382,0265-21-3339,https://maps.google.com/?cid=7475334129884946180,true,api
ChIJn1stgDyaHGARaxaCKdjYM7c,"T-ZO デザイン スタジオ","日本、〒395-0002 長野県飯田市上郷飯沼１３２８ 1F 育むシェアオフィス和音館",飯田市,買い物,35.5267339,137.8552619,0265-52-3043,https://maps.google.com/?cid=13201133355673982571,true,api
ChIJ_UOJoSOQHGAR6Z9fxBRRxvY,"ちひろ書店","日本、〒399-3303 長野県下伊那郡松川町元大島１４３５−４",下伊那郡,買い物,35.596545,137.914727,0265-36-2321,https://maps.google.com/?cid=17781989328354779113,true,api
ChIJ__-b6cCZHGARmq7hRttTyMo,"裏山しいちゃん","日本、〒395-0052 長野県飯田市元町５４５５−２ 裏山しいちゃん",飯田市,買い物,35.5178788,137.8193761,0265-49-8948,https://maps.google.com/?cid=14612021192255712922,true,api
ChIJjRrQoyjwHGARfHh8TQTn61Y,"コマ書店","日本、〒396-0026 長野県伊那市ますみヶ丘２７０",伊那市,買い物,35.8381508,137.9252029,0265-78-4030,https://maps.google.com/?cid=6263353712454695036,true,api
ChIJL0KY4qXxHGARNXGb0_ADPWE,"南信こどものとも社","日本、〒396-0026 長野県伊那市西町４９０８−８ 小松ビル",伊那市,買い物,35.835955,137.956427,0265-77-1021,https://maps.google.com/?cid=7006760928135573813,true,api
ChIJ3b0w7xLxHGARnVYI0tPoXn4,"TSUTAYA 伊那店","日本、〒396-0009 長野県伊那市日影４５０",伊那市,買い物,35.83614,137.97309,0265-74-2155,https://maps.google.com/?cid=9105971493049226909,true,api
ChIJ2SdZXNXfHGARM7HSo_a9_us,"ブックガーデン YAMAJI","日本、〒399-6101 長野県木曽郡木曽町日義４６３３−１",木曽町,買い物,35.8673021,137.7401645,0264-24-2455,https://maps.google.com/?cid=17005238110005670195,true,api
ChIJ94exTMT1HGARAp_jJbraPog,"蟻屋書房","日本、〒396-0211 長野県伊那市高遠町西高遠１９０−２",伊那市,買い物,35.8387945,138.0530865,0265-96-7334,https://maps.google.com/?cid=9817524730748706562,true,api
ChIJOaGHO8HwHGARDnmBkR6LjLM,"平安堂 伊那店","日本、〒396-0001 長野県伊那市福島上手２３４−１",伊那市,買い物,35.8728816,137.9852312,0265-96-7755,https://maps.google.com/?cid=12937868792935053582,true,api
ChIJee-W7qbwHGARd6qK6k2CLRU,"TSUTAYA 箕輪店","日本、〒399-4603 長野県上伊那郡箕輪町三日町９３３−１",箕輪町,買い物,35.8912201,137.9875191,0265-98-8118,https://maps.google.com/?cid=1526019119907514999,true,api
ChIJR7dpCRb6HGAR2-bW9J1wbhw,"丸山書店","日本、〒399-4601 長野県上伊那郡箕輪町大字, 中箕輪松島９６２１",箕輪町,買い物,35.9116517,137.9863533,0265-79-2072,https://maps.google.com/?cid=2048698704220055259,true,api
ChIJT18P2i6YHGARkJHzULIgKxA,"平安堂 飯田店 外商部","日本、〒395-0066 長野県飯田市羽場２０１９−２",飯田市,買い物,35.5193988,137.7962687,0265-23-4811,https://maps.google.com/?cid=1165060878839812496,true,api
ChIJT18P2i6YHGARNa_2cekXFT4,"（株）平安堂ホールセール 飯田営業所","日本、〒395-0066 長野県飯田市羽場２０１９−２",飯田市,買い物,35.5192336,137.7962752,0265-23-9071,https://maps.google.com/?cid=4473508096269266741,true,api
ChIJOdFJG7-ZHGARiimXHeEVU-A,"後藤書店","日本、〒395-0054 長野県飯田市箕瀬町１丁目",飯田市,買い物,35.5146536,137.8198643,,https://maps.google.com/?cid=16164287544171112842,true,api
ChIJyY2RUSGZHGARI_5dovP5yrw,"ひなみ文庫","日本、〒395-0801 長野県飯田市鼎中平２２８１−１",飯田市,買い物,35.50766,137.8243953,0265-49-4560,https://maps.google.com/?cid=13603960449222442531,true,api
ChIJgfVF_T6aHGARRrZ5EMmMrPk,"平安堂 座光寺店","日本、〒395-0001 長野県飯田市座光寺３７１５",飯田市,買い物,35.5307865,137.8600308,0265-23-4646,https://maps.google.com/?cid=17990909406631016006,true,api
